source_id,source_name,iso3_country,subsector,heat_case,status,available_land_km2,replaceable_heat_mwh_th,lat,lon,site,n_bands,n_rep_days,total_load_MW,S_opt_MW,solar_per_load_MWdc_per_MWth,storage_energy_MWh_total,LCOH_total_$perMWh,LCOH_served_$perMWh,LCOH_solar_$perMWh,LCOH_converter_$perMWh,LCOH_storage_$perMWh,Reliability_%,Unserved_MWh,met_availability_target,include_converter_cost,hp_load_MW,ihb_load_MW,solve_seconds,project_start_year
32267416,Austria,AUT,chemicals,high,ok,9.418273606154258,400920.6237323473,47.6139487927463,14.076158884337072,32267416,3,16,45.76719448999399,267.3056624093664,5.840551630662155,767.7610608344378,53.257150638759555,59.17461182084396,36.66054180299747,0.0,22.514070017846485,89.99999999999999,40092.06237323477,True,False,32.037036142995795,13.730158346998197,0.2123100757598877,2025
38480620,Agrana Zucker Gmbh,AUT,food-beverage-tobacco,high,ok,286.3091393362083,581489.7560474878,48.32478,16.038471,38480620,4,16,66.38010913784109,429.2488229709299,6.466527828081401,1107.2967649537286,56.6796318886331,62.977368765147894,40.58973000376473,0.0,22.387638761383165,89.99999999999999,58148.97560474888,True,False,55.45740572728283,10.922703410558254,0.23518776893615723,2025
38479269,Eibetex,AUT,textiles-leather-apparel,high,ok,332.2041151049733,43891.22013686958,48.81547,15.2833,38479269,3,16,5.010413257633514,26.93045519217866,5.374897000990748,80.81214438921404,49.84565123505184,55.38405692783539,33.737675591661116,0.0,21.64638133617427,89.99999999999999,4389.122013686965,True,False,4.509371931870163,0.5010413257633514,0.2444319725036621,2025
38480528,Bunge Austria Gmbh,AUT,food-beverage-tobacco,high,ok,273.4198319738671,581489.7560474878,48.022446,16.754778,38480528,4,16,66.38010913784109,381.1588799617765,5.742064677391296,1084.521353938011,52.17255755675592,57.96950839639548,36.04234932808106,0.0,21.92715906831442,89.99999999999999,58148.975604748906,True,False,55.45740572728283,10.922703410558254,0.260145902633667,2025
32437243,Gartenau Cement Plant,AUT,cement,high,ok,49.91480968510381,423813.410478062,47.7235279928077,13.0492860026401,32437243,3,16,48.38052631028105,2042.575416857706,42.21895817664247,765.3910237488791,257.6126319561836,286.23625772909287,265.00405766267136,0.0,21.232200066421495,90.0,42381.34104780618,True,False,0.0,48.38052631028105,0.16193270683288574,2025
38480613,Agrana Zucker Gmbh,AUT,food-beverage-tobacco,high,ok,315.26353372658104,581489.7560474878,48.243057,16.702778,38480613,4,16,66.38010913784109,380.5101247181947,5.732291339383751,1084.521353938011,52.11734594314232,57.90816215904704,35.98100309073262,0.0,21.92715906831442,89.99999999999999,58148.975604748906,True,False,55.45740572728283,10.922703410558254,0.30696797370910645,2025
32437244,Gmunden Cement Plant,AUT,cement,high,ok,147.63736056491788,367720.075977014,47.9225966590857,13.7778374280392,32437244,3,16,41.97717762294681,611.8299873638271,14.575300723157014,739.9075075564648,103.62954749471423,115.14394166079359,91.48766336510889,0.0,23.656278295684693,90.0,36772.007597701406,True,False,0.0,41.97717762294681,0.18441390991210938,2025
38475947,Huber,AUT,textiles-leather-apparel,high,ok,9.539402157053988,43891.22013686958,47.4223539,13.8752059,38475947,3,16,5.010413257633514,27.35217012497236,5.45906469557187,84.73748373680681,51.267431021402984,56.963812246003314,34.265987552718684,0.0,22.697824693284627,90.0,4389.122013686958,True,False,4.509371931870163,0.5010413257633514,0.21799492835998535,2025
38473498,Getzner Textil Ag,AUT,textiles-leather-apparel,high,ok,21.160949912337244,43891.22013686958,47.1518218,9.8236408,38473498,3,16,5.010413257633514,23.609051649729054,4.711996882444768,87.32582318028238,47.67107249231518,52.967858324794655,29.576719736124623,0.0,23.391138588670028,90.0,4389.122013686962,True,False,4.509371931870163,0.5010413257633514,0.2716689109802246,2025
32437240,Kirchdorfer Cement Plant,AUT,cement,high,ok,139.9647283160515,166237.30939047248,47.9087598061799,14.1163799202923,32437240,3,16,18.976861802565352,278.2656595367769,14.663418136878674,350.2909291963798,105.13280721327467,116.81423023697187,92.04076730692762,0.0,24.773462930044253,89.99999999999999,16623.73093904726,True,False,0.0,18.976861802565352,0.13712382316589355,2025
38477448,Gottstein Gmbh & Co.Kg (#),AUT,textiles-leather-apparel,high,ok,14.418529156251196,43891.22013686958,47.2581587,10.677482,38477448,3,16,5.010413257633514,81.59366375422127,16.284817151541517,80.366626133146,111.37065005883649,123.74516673204054,102.21812213833198,0.0,21.52704459370857,90.0,4389.1220136869615,True,False,4.509371931870163,0.5010413257633514,0.22533392906188965,2025
38472832,Hefel Textil Gmbh,AUT,textiles-leather-apparel,high,ok,132.3164881514449,43891.22013686958,48.4366178,14.5399221,38472832,3,16,5.010413257633514,33.81907459263096,6.749757525710398,85.12796945212538,58.6529586661933,65.16995407354811,42.36753368163428,0.0,22.80242039191384,90.0,4389.122013686959,True,False,4.509371931870163,0.5010413257633514,0.2501077651977539,2025
38479518,Heratex (#),AUT,textiles-leather-apparel,high,ok,10.446775272476255,43891.22013686958,47.4596131,13.9909218,38479518,3,16,5.010413257633514,25.343646094671982,5.058194761891183,79.75881550924936,47.802603915615535,53.11400435068393,31.749768214101266,0.0,21.364236136582658,90.0,4389.122013686962,True,False,4.509371931870163,0.5010413257633514,0.25756072998046875,2025
44375328,"Laakirchen Papier AG, Heinzel Group",AUT,pulp-and-paper,high,ok,232.61096440874488,238035.5985428927,47.9770957,13.8161934,44375328,4,16,27.17301353229369,223.45113107579073,8.223273830494762,453.2771995880946,66.60385444469327,74.00428271632585,51.61664395494269,0.0,22.387638761383172,90.0,23803.559854289255,True,False,26.444235391580833,0.7287781407128575,0.17261600494384766,2025
38480512,Jungbunzlauer Austria Ag,AUT,food-beverage-tobacco,high,ok,513.3617461466949,902974.885855244,48.721222,16.27811,38480512,4,16,103.07932486932008,599.5805419488078,5.816690618695189,1718.405419690428,52.995951318626766,58.88439035402974,36.51076868532064,0.0,22.373621668709102,90.0,90297.48858552442,True,False,86.11784487280221,16.96147999651787,0.2583012580871582,2025
18648341,"OMV AG , Schwechat ",AUT,petrochemical-steam-cracking,high,ok,298.6413602064854,2891441.758081201,48.139922,16.512808,18648341,1,16,330.0732600549316,4636.815352839426,14.047836992514194,5824.154489425585,100.67227701666185,111.85808557406872,88.17682778490808,0.0,23.681257789160632,90.0,289144.17580812,True,False,0.0,330.0732600549316,0.04030728340148926,2025
1895156,Mannersdorf Cement Plant,AUT,cement,high,ok,298.2431143543645,455052.0843049651,47.9836888240867,16.6070562287626,1895156,3,16,51.94658496632022,637.1588831492489,12.265654875336915,866.5289381214645,89.44010344728126,99.3778927192014,76.99025395781824,0.0,22.387638761383162,90.0,45505.20843049648,True,False,0.0,51.94658496632022,0.1914517879486084,2025
45257135,Linz Melamine and Fertilizers Complex,AUT,chemicals,high,ok,197.439962731712,1023557.4780134052,48.2895958,14.3307955,45257135,2,16,116.84446096043436,1814.1000066677993,15.525768117344358,1942.8014596075218,107.79204448186391,119.76893831318212,97.45364942951781,0.0,22.315288883664298,90.0,102355.74780134048,True,False,0.0,116.84446096043436,0.18852901458740234,2025
44375330,Mondi Neusiedler GmbH,AUT,pulp-and-paper,high,ok,184.8472967446291,238035.5985428927,48.0732305,14.8091594,44375330,4,16,27.173013532293687,220.13440313403703,8.101214201818983,453.2771995880945,65.91431428440579,73.2381269826731,50.850488221289936,0.0,22.387638761383162,90.0,23803.55985428925,True,False,26.288310766125985,0.8847027661677015,0.194566011428833,2025
32437242,Retznei Cement Plant,AUT,cement,high,ok,128.16061949395723,289255.4920516694,46.7375344612225,15.5733587435471,32437242,3,16,33.02003333923166,362.0676182623088,10.96508942140074,576.6080128021233,83.0365567356948,92.26284081743867,68.82673838486268,0.0,23.436102432575993,89.99999999999999,28925.54920516695,True,False,0.0,33.02003333923166,0.2005469799041748,2025
44375331,"Papierfabrik Wattens GmbH & Co KG, delfort",AUT,pulp-and-paper,high,ok,27.494338262523694,82568.77446541945,47.2969362,11.5903444,44375331,4,16,9.425659185550165,63.503335253439964,6.737283197210504,153.60512007256662,57.74455202682063,64.16061336313405,42.289233604800124,0.0,21.871379758333916,89.99999999999999,8256.877446541954,True,False,9.225720960402132,0.19993822514803378,0.2514779567718506,2025
38472842,Seibersdorfer Bettfedern- Und Daunenfabrik Gmbh,AUT,textiles-leather-apparel,high,ok,350.93541167799935,43891.22013686958,47.9170893,16.4255328,38472842,3,16,5.010413257633514,25.66949376630335,5.123228852868595,79.56511776232725,48.12329940740936,53.47033267489928,32.15798051349789,0.0,21.312352161401396,90.00000000000001,4389.122013686954,True,False,4.509371931870163,0.5010413257633514,0.2397909164428711,2025
44375329,UPM-Kymmene Steyrermuhl Austria GmbH,AUT,pulp-and-paper,high,ok,239.45775796211623,238035.5985428927,47.9915494,13.8000831,44375329,4,16,27.173013532293695,223.67644490835994,8.231565654009346,453.2771995880945,66.65069667563685,74.0563296395965,51.66869087821336,0.0,22.38763876138315,90.0,23803.559854289277,True,False,26.59661627554807,0.5763972567456237,0.18636584281921387,2025
32437245,Vils Cement Plant,AUT,cement,high,ok,83.54438969697988,94855.09295425992,47.5523694919457,10.6384596501965,32437245,3,16,10.828206958248849,149.93822902448608,13.847004365784146,203.0252349322401,100.87199224536319,112.07999138373687,86.91622204537659,0.0,25.163769338360268,90.0,9485.50929542599,True,False,0.0,10.828206958248849,0.23221993446350098,2025
38469184,Stölzle-Oberglas Gmbh,AUT,glass,high,ok,28.29668432127398,140240.06858587093,47.066387,15.0775,38469184,5,16,16.00914024952864,151.8806018792943,9.487117953368303,267.0509198950397,73.74357204435478,81.93730227150532,59.549663510122144,0.0,22.38763876138317,89.99999999999999,14024.0068585871,True,False,3.565801941806402,12.443338307722241,0.45442724227905273,2025
32437246,Wietersdorf Cement Plant,AUT,cement,high,ok,58.18213338843085,183425.91334335605,46.8508788768487,14.533475311296,32437246,3,16,20.939031203579457,262.09286206480226,12.516952647742288,384.231113499514,92.87550152639604,103.19500169599557,78.56762422570554,0.0,24.627377470290025,90.00000000000003,18342.59133433556,True,False,0.0,20.939031203579457,0.20023202896118164,2025
38469169,Vetropack Austria Gmbh,AUT,glass,high,ok,150.64156014601406,169783.03688323684,48.210835,15.220556,38469169,5,16,19.381625214981376,234.79349135141192,12.11423132720181,323.30785801405335,88.58468041523415,98.42742268359353,76.03978392221036,0.0,22.387638761383162,89.99999999999997,16978.303688323722,True,False,4.316973663153419,15.064651551827957,0.36353588104248047,2025
38469123,Vetropack Austria Gmbh,AUT,glass,high,ok,368.76635534662114,193840.67011236135,48.0565,14.144222,38469123,5,16,22.127930378123445,302.38941572848796,13.66550827670003,386.9951299597558,98.32393652810013,109.2488183645557,85.77698976361445,0.0,23.471828600941244,90.0,19384.06701123612,True,False,4.928672988094573,17.19925739002887,0.40363383293151855,2025
38476726,Wolford Ag,AUT,textiles-leather-apparel,high,ok,116.45195697926287,43891.22013686958,47.4177188,9.6542278,38476726,3,16,5.010413257633514,28.289489749542017,5.6461390098795015,81.34249146148615,51.50580673329326,57.22867414810363,35.44023378041011,0.0,21.788440367693514,90.0,4389.122013686961,True,False,4.509371931870163,0.5010413257633514,0.25208210945129395,2025
32437239,Wopfinger Cement Plant,AUT,cement,high,ok,65.10341360369657,121060.07468661208,47.8730536970234,16.0856916114804,32437239,3,16,13.819643229065305,180.9672415944014,13.094928616810694,255.0891439885354,96.27160449045645,106.9684494338405,82.19551993061144,0.0,24.772929503229065,90.0,12106.007468661213,True,False,0.0,13.819643229065305,0.17934727668762207,2025
1566430,Voestalpine Stahl Donawitz steel plant,AUT,iron-and-steel,high,ok,33.640384405807914,1809742.576906593,47.3812785393747,15.0626634798431,1566430,3,16,206.59161836833252,1682.0192202903957,8.141759252263181,3445.431271857221,66.13894654575031,77.63696803836406,53.99046534692446,0.0,23.646502691439608,85.19001735496416,268022.5615596908,False,False,0.0,206.59161836833252,0.5384068489074707,2025
1566429,Voestalpine Stahl Linz steel plant,AUT,iron-and-steel,high,ok,210.75299508920816,7659670.631548872,48.2800817722905,14.3312483129851,1566429,3,16,874.3916246060357,10537.649754460408,12.051407467687298,14576.149797060014,88.21636094689588,101.83998098735528,78.59491753891214,0.0,23.24506344844314,86.6225229930562,1024670.6775430774,False,False,0.0,874.3916246060357,0.5061571598052979,2025
44375327,Ybbstaler Zellstoff GmbH,AUT,pulp-and-paper,high,ok,146.80963819682273,238035.5985428927,48.0250129,14.7628564,44375327,4,16,27.173013532293687,251.8548303580301,9.268564565307193,453.16849278796883,72.50408643638573,80.5600960404286,58.17782637454448,0.0,22.382269665884138,89.99999999999999,23803.559854289277,True,False,26.288310766125985,0.8847027661677015,0.2647080421447754,2025
38480249,Alpro,BEL,food-beverage-tobacco,high,ok,383.9773938292941,189193.1529491183,50.809956,3.211288,38480249,4,16,21.59739188916875,180.4552582401833,8.355418986062059,360.26940119448324,62.126413350666276,69.02934816740697,46.6417094060238,0.0,22.387638761383162,90.0,18919.31529491181,True,False,18.04358775851982,3.5538041306489343,0.2168898582458496,2025
32437251,Antoing Cement Plant,BEL,cement,high,ok,404.333520619114,250164.96859651036,50.5765558254982,3.44408026408596,32437251,3,16,28.557644816953236,752.2473149131628,26.341363923210903,487.9725012642357,152.97816925309837,169.97574361455372,147.04304398309634,0.0,22.932699631457382,90.00000000000003,25016.496859650968,True,False,0.0,28.557644816953236,0.1483440399169922,2025
38469196,Agc Flat Glass Europe - Site De Roux  (Ex-Glaverbel Sa),BEL,glass,high,ok,313.50821047172906,26947.107431834494,50.4553,4.4004,38469196,5,16,3.0761538164194624,68.4961671114755,22.266821231716783,52.028130169188955,132.29764588683818,146.9973843187091,124.29808810522545,0.0,22.699296213483652,89.99999999999999,2694.710743183452,True,False,0.6851682901714009,2.3909855262480617,0.34526991844177246,2025
38469213,Agc Glass Europe - Site De Moustier (Ex-Glaverbel Sa),BEL,glass,high,ok,334.0390111933914,615366.4895427846,50.4475,4.6926,38469213,5,16,70.24731615785211,1670.45077541502,23.779567203127947,1229.1425798717733,140.60305637265813,156.2256181918424,132.7425548783928,0.0,23.483063313449563,90.0,61536.6489542784,True,False,15.64656267969996,54.600753478152164,0.3163340091705322,2025
38469239,Agc Glass Europe Vestiging Mol,BEL,glass,high,ok,189.38115016575716,155148.18468353798,51.18836,5.155452,38469239,5,16,17.710979986705254,340.5276162631929,19.226921182159877,295.5254786248664,116.75058680561597,129.7228742284622,107.32872547107047,0.0,22.3941487573917,90.0,15514.818468353807,True,False,3.9448618628815715,13.76611812382368,0.3831450939178467,2025
45257032,Antwerp Chemical Complex,BEL,chemicals,high,ok,165.308950928131,1093555.7096701704,51.3591321,4.2694988,45257032,2,16,124.83512667467699,3342.428312735002,26.774742027902462,2212.543479846433,155.92420626068963,173.2491180674329,149.4622518834633,0.0,23.78686618396961,90.0,109355.57096701703,True,False,0.0,124.83512667467699,0.12818098068237305,2025
1566442,Aperam Stainless Belgium Châtelet steel plant,BEL,iron-and-steel,high,ok,295.74904274342714,593760.523938876,50.414955940121,4.53186650417152,1566442,3,16,67.7808817281822,1850.857334188526,27.306480632856232,1153.9490383106083,157.7513126500211,175.27923627780123,152.43052882248818,0.0,22.848707455313075,89.99999999999999,59376.052393887614,True,False,0.2121535103596887,67.5687282178225,0.15616393089294434,2025
33999004,BEL-Antwerpen_ammonia,BEL,chemicals,high,ok,242.1233796282139,1433275.903427465,51.2319382905994,4.72070443222579,33999004,2,16,163.6159707108978,4460.037646543937,27.259182750714636,2899.884502368802,158.35803143570325,175.9533682618925,152.1665020779229,0.0,23.78686618396962,89.99999999999999,143327.59034274652,True,False,0.0,163.6159707108978,0.08002591133117676,2025
18648342,"BASF Antwerpen, NV Antwerp ",BEL,petrochemical-steam-cracking,high,ok,169.4190190415355,7122467.48897409,51.358825,4.262207,18648342,1,16,813.0670649513801,8470.950952076775,10.418514434087086,13557.663777708292,72.48361027841602,91.91581399279872,66.37506422401003,0.0,25.540749768788693,78.8586937652479,1505782.66331467,False,False,0.0,813.0670649513801,0.0821070671081543,2025
33998943,BEL-Hainaut_ammonia,BEL,chemicals,high,ok,396.8939198795107,409795.51736495714,50.4636955021351,3.97003361295229,33998943,2,16,46.780310201479125,1211.1629859542013,25.890443666102627,829.1213625409174,151.48150044793698,168.31277827548553,144.52591209151592,0.0,23.786866183969607,90.0,40979.55173649572,True,False,0.0,46.780310201479125,0.06458497047424316,2025
38471296,Avs Spinning Nv,BEL,textiles-leather-apparel,high,ok,405.6363468250404,70320.0726066667,50.7223824,3.3315012,38471296,3,16,8.027405548706245,82.50567785866956,10.278000452084644,133.9063811509595,71.78544272758877,79.76160303065419,57.37396426927101,0.0,22.387638761383176,89.99999999999999,7032.007260666673,True,False,7.224664993835621,0.8027405548706245,0.14879679679870605,2025
1566441,Aperam Stainless Belgium Genk steel plant,BEL,iron-and-steel,high,ok,172.4298371256498,712512.6287266512,50.9330895511162,5.51202361169479,1566441,3,16,81.33705807381862,2399.871203213156,29.50526193159234,1441.5956654580268,169.64230998223164,188.49145553581292,164.7045893518433,0.0,23.786866183969607,90.0,71251.26287266507,True,False,0.2545842124316265,81.082473861387,0.2758190631866455,2025
1566440,ArcelorMittal Gent steel plant,BEL,iron-and-steel,high,ok,394.7344064332574,5471347.727321243,51.1710954920418,3.80755559465241,1566440,3,16,624.583073895119,14949.259357815255,23.934781428812077,11066.354056608707,141.6493411467929,157.38815682976985,133.6089933923819,0.0,23.77916343738798,90.00000000000001,547134.772732124,True,False,0.0,624.583073895119,0.30226588249206543,2025
38470810,Belimtex Bvba,BEL,textiles-leather-apparel,high,ok,429.97565028137274,70320.0726066667,50.9068366,3.4059296,38470810,3,16,8.027405548706245,82.3547283733256,10.259196184076995,142.27552997289447,72.95027496016478,81.05586106684973,57.268994882880115,0.0,23.786866183969618,90.00000000000001,7032.007260666658,True,False,7.224664993835621,0.8027405548706245,0.1700451374053955,2025
38480772,Beneo - Orafti,BEL,food-beverage-tobacco,high,ok,455.56696394383334,340730.8840747853,50.7245,5.3524,38480772,4,16,38.89621964324033,461.75294596414017,11.871409360585174,666.9642035662179,80.3537339916358,89.28192665737312,66.26870855429439,0.0,23.01321810307873,90.0,34073.088407478506,True,False,32.49593081465734,6.400288828582993,0.20426702499389648,2025
38480849,Cargill,BEL,food-beverage-tobacco,high,ok,373.6251211211622,189193.1529491183,51.135671,3.784262,38480849,4,16,21.59739188916875,220.13436297636696,10.192636412120018,360.26940119448324,71.35657467475306,79.28508297194784,56.89744421056468,0.0,22.387638761383162,90.0,18919.315294911816,True,False,18.04358775851982,3.5538041306489343,0.13905000686645508,2025
44375332,Burgo Ardennes S.A.,BEL,pulp-and-paper,high,ok,188.69213007713955,401025.20314571785,49.5518274,5.5054045,44375332,4,16,45.779132779191535,598.5224268933306,13.074132045711954,811.3767690370024,87.09248358029367,96.7694262003263,72.98256001635669,0.0,23.786866183969607,90.00000000000001,40102.52031457175,True,False,44.28864938638065,1.4904833928108876,0.12494325637817383,2025
38480213,Boortmalt,BEL,food-beverage-tobacco,high,ok,154.03711837077333,189193.1529491183,51.275116,4.355684,38480213,4,16,21.59739188916875,217.56037362408858,10.07345584784229,376.33300456492356,71.65620582713412,79.61800647459346,56.232153187438186,0.0,23.385853287155275,90.0,18919.315294911816,True,False,18.04358775851982,3.5538041306489343,0.173875093460083,2025
38480835,Cargill,BEL,food-beverage-tobacco,high,ok,158.12402986633825,189193.1529491183,51.280546,4.341369,38480835,4,16,21.59739188916875,244.75065685919773,11.332417271269776,383.7277718886686,78.39478394197003,87.10531549107777,63.25994113713307,0.0,23.845374353944717,90.00000000000003,18919.31529491178,True,False,18.04358775851982,3.5538041306489343,0.13895177841186523,2025
38480248,Citrique Belge,BEL,food-beverage-tobacco,high,ok,468.4685625698231,189193.1529491183,50.80137,4.961948,38480248,4,16,21.59739188916875,250.4275903790438,11.595270005941554,377.4403239825032,79.36371372280728,88.18190413645253,64.72724048951636,0.0,23.454663646936165,90.0,18919.31529491181,True,False,18.04358775851982,3.5538041306489343,0.2789320945739746,2025
38480243,Cl Warneton Sa,BEL,food-beverage-tobacco,high,ok,455.8866163716697,189193.1529491183,50.7424,2.9349,38480243,4,16,21.59739188916875,202.51616059234235,9.376880395169644,382.20932613729076,68.48526443927985,76.0947382658665,52.34372223057969,0.0,23.75101603528681,90.0,18919.315294911834,True,False,18.04358775851982,3.5538041306489343,0.21219301223754883,2025
38474256,Cousy Bvba,BEL,textiles-leather-apparel,high,ok,358.08856976932674,70320.0726066667,50.8802686,3.8167968,38474256,3,16,8.027405548706245,82.99583250381498,10.339060609338617,139.95339091181057,73.00210105827617,81.11344562030685,57.714814933453944,0.0,23.398630686852897,90.0,7032.007260666667,True,False,7.224664993835621,0.8027405548706245,0.19385600090026855,2025
38479106,Devan Chemicals,BEL,textiles-leather-apparel,high,ok,422.3272448530978,70320.0726066667,50.7516001,3.6437709,38479106,3,16,8.027405548706245,94.29859633481757,11.747082636184418,142.27552997289447,80.42540108845428,89.3615567649492,65.57469058097958,0.0,23.78686618396962,90.0,7032.007260666666,True,False,7.224664993835621,0.8027405548706245,0.16242575645446777,2025
38480245,Deliva,BEL,food-beverage-tobacco,high,ok,194.2400810218597,189193.1529491183,50.916733,5.491459,38480245,4,16,21.59739188916875,228.45636614587733,10.577960862971137,357.7088335438135,73.14923523273653,81.27692803637392,59.04840648948973,0.0,22.228521546884192,90.0,18919.315294911823,True,False,18.04358775851982,3.5538041306489343,0.2383577823638916,2025
38480247,Coca-Cola European Partners Belgium,BEL,food-beverage-tobacco,high,ok,226.3820114736033,189193.1529491183,51.157,4.3745,38480247,4,16,21.59739188916875,217.9568124304199,10.091811712678457,360.26940119448324,70.85003242880072,78.72225825422302,56.33461949283986,0.0,22.387638761383165,89.99999999999999,18919.315294911845,True,False,18.04358775851982,3.5538041306489343,0.35030603408813477,2025
38480211,Exportslachthuis Tielt,BEL,food-beverage-tobacco,high,ok,443.8816167125047,189193.1529491183,51.00576,3.31441,38480211,4,16,21.59739188916875,183.86144359980696,8.513131795882021,358.8187156465403,62.83762802875454,69.81958669861615,47.5220955431524,0.0,22.297491155463742,90.0,18919.315294911838,True,False,18.04358775851982,3.5538041306489343,0.23855113983154297,2025
38480215,Friesland Foods Belgie/Belgique,BEL,food-beverage-tobacco,high,ok,312.6767177283271,189193.1529491183,51.10239,4.244851,38480215,4,16,21.59739188916875,227.87841976969275,10.55120085513545,398.4514590521801,75.29341600871007,83.65935112078895,58.89902648697195,0.0,24.760324633817003,90.0,18919.315294911827,True,False,18.04358775851982,3.5538041306489343,0.21465516090393066,2025
1895170,Gaurain Cement Plant,BEL,cement,high,ok,447.5177775336549,658179.6533200066,50.6033470668449,3.49006699801599,1895170,3,16,75.13466362100532,1893.2508586831984,25.19810121508156,1285.8135842707543,147.26604276696898,163.62893640774334,140.66111064184045,0.0,22.96782576590288,89.99999999999999,65817.96533200069,True,False,0.0,75.13466362100532,0.1625828742980957,2025
38471111,Groep Masureel Veredeling Nv,BEL,textiles-leather-apparel,high,ok,384.9317846620571,70320.0726066667,50.8118808,3.2196556,38471111,3,16,8.027405548706245,63.61596721776374,7.924847801917339,133.9063811509595,59.963228180097666,66.6258090889974,44.23817032761422,0.0,22.387638761383172,90.0,7032.007260666667,True,False,7.224664993835621,0.8027405548706245,0.20617389678955078,2025
38480210,Kraft Foods Belgium Production,BEL,food-beverage-tobacco,high,ok,256.8473663121139,189193.1529491183,51.17418,4.82904,38480210,4,16,21.59739188916875,234.20050512054448,10.843925337021723,360.26940119448324,74.62864348934754,82.92071498816395,60.53307622678078,0.0,22.387638761383165,89.99999999999999,18919.31529491184,True,False,18.04358775851982,3.5538041306489343,0.15271306037902832,2025
38471018,Interspinning Nv,BEL,textiles-leather-apparel,high,ok,354.8446633241525,70320.0726066667,51.08813019999999,3.6767186,38471018,3,16,8.027405548706245,78.2597955391713,9.749077091512364,142.27552997289447,70.38744192141492,78.20826880157215,54.42140261760252,0.0,23.786866183969625,89.99999999999999,7032.007260666671,True,False,7.224664993835621,0.8027405548706245,0.17348504066467285,2025
38480214,Inex,BEL,food-beverage-tobacco,high,ok,337.09709303360717,189193.1529491183,50.942036,3.866163,38480214,4,16,21.59739188916875,235.61816746862766,10.909565778949073,374.8708175988075,75.77503737512347,84.19448597235942,60.899495005152694,0.0,23.29499096720672,90.0,18919.31529491182,True,False,18.04358775851982,3.5538041306489343,0.3002769947052002,2025
38480844,Konings Juices And Drinks,BEL,food-beverage-tobacco,high,ok,415.2210382502182,189193.1529491183,50.801774,5.292077,38480844,4,16,21.59739188916875,235.0064571808926,10.881242438294137,357.2956856340449,74.64981250250874,82.9442361138986,60.741388149417624,0.0,22.20284796448098,90.0,18919.31529491182,True,False,18.04358775851982,3.5538041306489343,0.20875096321105957,2025
38469225,Gerresheimer Momignies Sa,BEL,glass,high,ok,136.81347474617732,46789.97065830896,50.0269,4.1517,38469225,5,16,5.341320851405131,103.90297578672426,19.452674474590065,94.66810294783402,119.1382146930248,132.37579410336085,108.58892791939127,0.0,23.7868661839696,90.00000000000003,4678.997065830883,True,False,1.189701131159259,4.151619720245873,0.3674957752227783,2025
38480628,Isera And Scaldis Sugar,BEL,food-beverage-tobacco,high,ok,386.18389512809506,189193.1529491183,51.172178,3.925505,38480628,4,16,21.59739188916875,222.62955672568825,10.30816859128896,360.26940119448324,71.93700714655948,79.93000794062162,57.542369179238456,0.0,22.38763876138316,90.00000000000001,18919.315294911787,True,False,18.04358775851982,3.5538041306489343,0.22361397743225098,2025
38472870,Lampe Textiles,BEL,textiles-leather-apparel,high,ok,451.5945022113785,70320.0726066667,51.0043056,3.35593,38472870,3,16,8.027405548706245,64.95294960329824,8.0914000431642,133.39389575194963,60.7228713074667,67.46985700829633,45.16790003358306,0.0,22.30195697471326,90.0,7032.007260666663,True,False,7.224664993835621,0.8027405548706245,0.20728182792663574,2025
38467373,Lhoist Industrie Sa - Site De On,BEL,lime,high,ok,136.14919218797317,1068430.9983174684,50.1649,5.268,38467373,2,16,121.96700894035027,3027.6493574462106,24.82351074893479,2217.0237101682706,146.66903432425113,162.96559369361236,138.57006772736426,0.0,24.395525966248112,90.0,106843.09983174675,True,False,0.0,121.96700894035027,0.10377073287963867,2025
32437252,Lixhe Cement Plant,BEL,cement,high,ok,320.91782047633484,528885.0574959203,50.7655332494607,5.67383641398411,32437252,3,16,60.37500656346123,1717.7602241892084,28.45151200743375,1070.0700249681336,164.3482812748634,182.6092014165149,158.82233523254527,0.0,23.78686618396961,90.0,52888.50574959205,True,False,0.0,60.37500656346123,0.18233299255371094,2025
38480212,Leaf België Production Nv,BEL,food-beverage-tobacco,high,ok,245.2683664475554,189193.1529491183,51.299,4.939429,38480212,4,16,21.59739188916875,230.66614955941452,10.680278005007413,379.08114183925903,74.85856980632639,83.17618867369599,59.61956233626075,0.0,23.55662633743524,89.99999999999999,18919.315294911852,True,False,18.04358775851982,3.5538041306489343,0.22182178497314453,2025
38472835,Mcthree Carpets,BEL,textiles-leather-apparel,high,ok,410.3740704793777,70320.0726066667,50.8619452,3.420825,38472835,3,16,8.027405548706245,82.42031831547285,10.267366936351722,142.27552997289447,72.99132473498467,81.10147192776073,57.31460574379112,0.0,23.786866183969618,90.00000000000001,7032.007260666659,True,False,7.224664993835621,0.8027405548706245,0.1475660800933838,2025
38480638,Mars Belgium,BEL,food-beverage-tobacco,high,ok,261.13157756070603,189193.1529491183,51.145015,4.870171,38480638,4,16,21.59739188916875,234.28571457068534,10.847870695358422,360.26940119448324,74.64846492877685,82.94273880975204,60.55510004836888,0.0,22.387638761383162,90.0,18919.315294911838,True,False,18.04358775851982,3.5538041306489343,0.1562643051147461,2025
32437253,Obourg Cement Plant,BEL,cement,high,ok,398.6245912317927,526927.0208276258,50.4726674421383,3.99262683078541,32437253,3,16,60.1514863958477,1557.1443609411735,25.887047091302875,1066.108414941844,151.46443609131464,168.2938178792385,144.50695169526887,0.0,23.786866183969604,90.0,52692.702082762575,True,False,0.0,60.1514863958477,0.1132209300994873,2025
38480241,Manshoven Vers,BEL,food-beverage-tobacco,high,ok,297.4246696551794,189193.1529491183,50.88159,5.296548,38480241,4,16,21.59739188916875,228.47650174225092,10.578893179080273,357.71981077254975,73.15453310537009,81.28281456152233,59.05361087446544,0.0,22.22920368705689,90.0,18919.315294911823,True,False,18.04358775851982,3.5538041306489343,0.2854630947113037,2025
38480867,Olympia,BEL,food-beverage-tobacco,high,ok,401.59174572148265,189193.1529491183,50.742309,4.08667,38480867,4,16,21.59739188916875,223.04514411982302,10.327411071874923,380.13491273628176,73.14470449081507,81.27189387868341,57.649784760580204,0.0,23.62210911810321,90.0,18919.31529491183,True,False,18.04358775851982,3.5538041306489343,0.12286496162414551,2025
38476375,Libeco Lagae Nv.,BEL,textiles-leather-apparel,high,ok,438.56164628945487,70320.0726066667,50.9567532,3.297014,38476375,3,16,8.027405548706245,82.92598540048022,10.33035952865807,142.27552997289447,73.30779886644204,81.45310985160225,57.66624366763263,0.0,23.786866183969618,90.00000000000001,7032.00726066666,True,False,7.224664993835621,0.8027405548706245,0.3201611042022705,2025
38480873,Pb Leiner Vilvoorde,BEL,food-beverage-tobacco,high,ok,248.87542088623584,189193.1529491183,50.938433,4.418274,38480873,4,16,21.59739188916875,255.85589041034106,11.846610540907703,387.26429964516456,81.17587385665448,90.19541539628275,66.13027631733075,0.0,24.065139078951987,90.0,18919.315294911827,True,False,18.04358775851982,3.5538041306489343,0.18943119049072266,2025
38480784,Raffinerie Tirlemontoise Sa - Site De Wanze,BEL,food-beverage-tobacco,high,ok,367.0302979748785,189193.1529491183,50.5286,5.2072,38480784,4,16,21.59739188916875,361.07944668576397,16.718659759415115,405.039969630752,106.6471429216295,118.49682546847724,93.3270816768867,0.0,25.169743791590534,89.99999999999999,18919.315294911852,True,False,18.04358775851982,3.5538041306489343,0.12669992446899414,2025
38480637,Raffinerie Tirlemontoise Sa - Site De Brugelette,BEL,food-beverage-tobacco,high,ok,466.9539376851709,189193.1529491183,50.5938,3.8574,38480637,4,16,21.59739188916875,224.4428224956148,10.392126218174266,360.26940119448324,72.35880939464809,80.39867710516454,58.01103834378139,0.0,22.38763876138316,90.00000000000001,18919.3152949118,True,False,18.04358775851982,3.5538041306489343,0.19242429733276367,2025
38480647,Raffinerie Tirlemontoise Sa - Site De Hollogne,BEL,food-beverage-tobacco,high,ok,507.05086155038595,189193.1529491183,50.6744,5.2136,38480647,4,16,21.59739188916875,263.5688639252758,12.20373576947768,363.208012046039,81.62466542871348,90.69407269857052,68.12382459543704,0.0,22.570248103133483,90.00000000000001,18919.315294911787,True,False,18.04358775851982,3.5538041306489343,0.26258206367492676,2025
38468966,Saverglass Md Verre,BEL,glass,high,ok,377.3833711219378,142899.91731292583,50.4816,3.8833,38468966,5,16,16.312775948964134,338.86216910407313,20.77280839044387,278.0927469475961,124.95380491289086,138.8375610143232,115.95819361187209,0.0,22.87936740245111,89.99999999999999,14289.9917312926,True,False,3.6334323547938014,12.679343594170334,0.19303083419799805,2025
38480218,Slachthuis Heist Op Den Berg,BEL,food-beverage-tobacco,high,ok,273.0832068805185,189193.1529491183,51.070156,4.699204,38480218,4,16,21.59739188916875,253.50708460399585,11.737856399741096,362.8021604079485,79.26139413555556,88.06821570617285,65.5231877850314,0.0,22.545027921141457,90.0,18919.315294911816,True,False,18.04358775851982,3.5538041306489343,0.2332630157470703,2025
38480880,Tiense Suikerraffinaderij,BEL,food-beverage-tobacco,high,ok,468.2585071765011,389920.00871969986,50.794086,4.936095,38480880,4,16,44.51141652051368,515.5974884896958,11.583488659635801,778.414574596859,79.31874903919956,88.1319433768884,64.66147453191192,0.0,23.470468844976477,90.0,38992.00087197,True,False,37.1871591887306,7.324257331783082,0.1212470531463623,2025
38480650,Slachthuis Genk,BEL,food-beverage-tobacco,high,ok,138.8681073825739,189193.1529491183,50.966324,5.484406,38480650,4,16,21.59739188916875,228.3726390648467,10.57408414112156,357.7164088423017,73.13018228787847,81.25575809764274,59.02676581123558,0.0,22.228992286407173,90.0,18919.315294911823,True,False,18.04358775851982,3.5538041306489343,0.2634902000427246,2025
1566443,Thy Marcinelle Charleroi steel plant,BEL,iron-and-steel,high,ok,295.0588170233,475008.4191511008,50.4098301921851,4.4305388035139,1566443,3,16,54.22470538254575,1467.5996844331341,27.065148147499865,904.7075618803339,156.12784052964045,173.47537836626717,151.08336003645815,0.0,22.39201832980901,90.0,47500.84191511005,True,False,0.16972280828775094,54.054982574258,0.16051197052001953,2025
38480217,Schildermans Pluimveeslachterij,BEL,food-beverage-tobacco,high,ok,159.99658084618468,189193.1529491183,51.141735,5.562029,38480217,4,16,21.59739188916875,248.46258055503915,11.5042863430026,382.78623876913844,79.20559502566998,88.00621669518885,64.21935051121925,0.0,23.786866183969607,90.0,18919.315294911838,True,False,18.04358775851982,3.5538041306489343,0.19794297218322754,2025
38480242,Tecoma,BEL,food-beverage-tobacco,high,ok,153.63719738119974,207518.67352130415,51.273685,4.358077,38480242,4,16,23.689346292386322,268.457692917648,11.332423005861052,420.9193634920555,78.39599407237573,87.10666008041747,63.25997314882996,0.0,23.84668693158751,90.00000000000001,20751.8673521304,True,False,19.791315588573603,3.8980307038127164,0.24168920516967773,2025
38480209,Slachthuis Sint Truiden,BEL,food-beverage-tobacco,high,ok,427.2106821972908,189193.1529491183,50.82002,5.19318,38480209,4,16,21.59739188916875,272.97820630787857,12.639406077767156,360.26940119448324,83.64912013860852,92.94346682067614,70.55582805929298,0.0,22.387638761383162,90.0,18919.315294911834,True,False,18.04358775851982,3.5538041306489343,0.37090373039245605,2025
18648343,"TotalEnergies Fina Antwerp Olefin, Antwerp",BEL,petrochemical-steam-cracking,high,ok,185.0899825672961,7650057.672992455,51.254801,4.332047,18648343,1,16,873.2942549078144,9253.109972688828,10.59563820635187,14567.555188921013,73.38125151588112,92.75228661614462,67.28455228696636,0.0,25.467734329178242,79.1153018357051,1597691.4543989564,False,False,0.0,873.2942549078144,0.18270087242126465,2025
38480863,Tereos Starch & Sweeteners Belgium,BEL,food-beverage-tobacco,high,ok,339.7671750133155,703399.9528112323,50.937207,4.045239,38480863,4,16,80.29679826612242,775.5888993416582,9.659026462937847,1447.2136577151819,70.29688531430484,78.1076503492276,53.91872103373355,0.0,24.18892931549404,90.0,70339.99528112319,True,False,67.0841337545737,13.212664511548716,0.39292001724243164,2025
38480938,Trotec,BEL,food-beverage-tobacco,high,ok,417.30816753574845,189193.1529491183,51.062185,2.672423,38480938,4,16,21.59739188916875,175.5556099805331,8.12855602571973,360.26940119448324,60.98665618707754,67.76295131897504,45.37531255759188,0.0,22.387638761383162,90.0,18919.31529491183,True,False,18.04358775851982,3.5538041306489343,0.22252607345581055,2025
38474877,Utexbel,BEL,textiles-leather-apparel,high,ok,442.04421884644063,70320.0726066667,50.7477392,3.5862308,38474877,3,16,8.027405548706245,81.65862253482581,10.172480017281114,141.57766135783925,72.40960564092522,80.4551173788058,56.784926967286104,0.0,23.67019041151969,90.0,7032.007260666669,True,False,7.224664993835621,0.8027405548706245,0.20956015586853027,2025
38480208,Vaco Olen,BEL,food-beverage-tobacco,high,ok,258.0190589493681,189193.1529491183,51.14898,4.899779,38480208,4,16,21.59739188916875,234.28730995206286,10.847944564526777,360.26940119448324,74.64883604671374,82.94315116301527,60.555512401632114,0.0,22.387638761383165,89.99999999999999,18919.31529491184,True,False,18.04358775851982,3.5538041306489343,0.22007989883422852,2025
38480244,Vacos Kitchen Herselt,BEL,food-beverage-tobacco,high,ok,249.17717397477952,189193.1529491183,51.06432,4.891171,38480244,4,16,21.59739188916875,259.58766133952065,12.019398576996963,363.0074732809792,80.68734170196167,89.65260189106854,67.09481554409564,0.0,22.55778634697289,89.99999999999999,18919.315294911845,True,False,18.04358775851982,3.5538041306489343,0.19767403602600098,2025
38480250,Vandamme Oliefabriek,BEL,food-beverage-tobacco,high,ok,429.71310457782886,189193.1529491183,50.974694,3.505533,38480250,4,16,21.59739188916875,219.8139708953487,10.177801654170427,378.49501177064724,72.30135318322138,80.33483687024597,56.814633465759684,0.0,23.52020340448628,90.00000000000001,18919.315294911805,True,False,18.04358775851982,3.5538041306489343,0.20068621635437012,2025
38480216,Vleeswarenbedrijf Bruynkens,BEL,food-beverage-tobacco,high,ok,258.03252860087537,189193.1529491183,51.1495,4.901222,38480216,4,16,21.59739188916875,234.22703617322537,10.845153774826484,360.26940119448324,74.63481514815815,82.92757238684241,60.53993362545925,0.0,22.387638761383165,89.99999999999999,18919.31529491184,True,False,18.04358775851982,3.5538041306489343,0.18500590324401855,2025
38480246,Westvlees,BEL,food-beverage-tobacco,high,ok,483.5294513131946,189193.1529491183,50.930496,3.006087,38480246,4,16,21.59739188916875,189.5985056425271,8.778768594628879,360.26940119448324,64.2533174003111,71.39257488923457,49.0049361278514,0.0,22.387638761383162,90.0,18919.315294911812,True,False,18.04358775851982,3.5538041306489343,0.185075044631958,2025
38478594,Almina Jsc.,BGR,textiles-leather-apparel,high,ok,447.0576121811828,5447.494120690496,43.8178375,23.2383326,38478594,3,16,0.6218600594395542,2.5012759455559324,4.022248908878606,9.987922117054572,45.95598712791528,51.062207919905866,29.506380154555455,0.0,21.55582776535041,89.99999999999999,544.7494120690495,True,False,0.5596740534955988,0.06218600594395544,0.13015031814575195,2025
38479157,Arda Ltd.,BGR,textiles-leather-apparel,high,ok,194.36140745933992,5447.494120690496,43.8403431,25.9489572,38479157,3,16,0.6218600594395542,2.4392967762488005,3.9225815184966124,10.187484295968229,45.68558551793879,50.76176168659867,28.775240939592383,0.0,21.986520747006285,89.99999999999999,544.7494120690507,True,False,0.5596740534955988,0.06218600594395544,0.21557188034057617,2025
38473721,Abotis Ltd,BGR,textiles-leather-apparel,high,ok,78.49135925340792,5447.494120690496,41.8859984,23.4628413,38473721,3,16,0.6218600594395542,2.1680667551023416,3.486422262038009,9.732373948205273,41.92197650987715,46.5799738998635,25.5756674868933,0.0,21.004306412970198,90.00000000000001,544.7494120690491,True,False,0.5596740534955988,0.06218600594395544,0.3929407596588135,2025
38475172,Begs  Fashion Pltd,BGR,textiles-leather-apparel,high,ok,56.16158444140937,5447.494120690496,41.5678434,23.2803538,38475172,3,16,0.6218600594395542,2.1353919729068753,3.4338786363468623,10.345083912969294,42.765182069012035,47.51686896556892,25.190218393745585,0.0,22.326650571823333,90.00000000000001,544.7494120690487,True,False,0.5596740534955988,0.06218600594395544,0.14867210388183594,2025
32437258,Beli Izvor Cement Plant,BGR,cement,high,ok,210.61558781104077,436614.9769630931,43.2820181525008,23.4653676582166,32437258,3,16,49.841892347385055,497.73012424501565,9.98618031546567,862.998768493988,86.8450427730179,96.49449197001988,73.25653865668346,0.0,23.23795331333642,90.0,43661.49769630932,True,False,0.0,49.841892347385055,0.19228792190551758,2025
38478768,B.E.G.S Fashion Pltd (Site 2),BGR,textiles-leather-apparel,high,ok,64.22839066228892,5447.494120690496,42.0208569,23.0943385,38478768,3,16,0.6218600594395542,1.9839396139560086,3.190331303386836,9.313470456745648,39.15345530098942,43.503839223321584,23.403605890455704,0.0,20.100233332865876,89.99999999999999,544.7494120690494,True,False,0.5596740534955988,0.06218600594395544,0.3764328956604004,2025
38480259,Amilum Bg Ead,BGR,food-beverage-tobacco,high,ok,265.73346349981483,394915.6667723294,43.5692,26.5279,38480259,4,16,45.08169712012892,182.98268387814656,4.058912941776653,708.6154250249645,45.78387579999238,50.87097311110263,29.775339862717935,0.0,21.095633248384697,90.00000000000003,39491.566677232855,True,False,37.663601348920295,7.418095771208632,0.26984500885009766,2025
38478754,Bames Eood,BGR,textiles-leather-apparel,high,ok,38.404865888463874,5447.494120690496,41.7620296,25.347511,38478754,3,16,0.6218600594395542,2.086442675203099,3.35516430671474,9.696671307534213,40.98603583778814,45.5400398197646,24.612786467887002,0.0,20.9272533518776,89.99999999999999,544.7494120690494,True,False,0.5596740534955988,0.06218600594395544,0.2429051399230957,2025
38470863,Bulstar Ltd,BGR,textiles-leather-apparel,high,ok,73.91971887502106,5447.494120690496,41.4013466,23.2402739,38470863,3,16,0.6218600594395542,2.1152024138164442,3.40141223368285,9.760674712205281,41.41569280392531,46.0174364488059,24.952051626606785,0.0,21.065384822199118,89.99999999999999,544.7494120690494,True,False,0.5596740534955988,0.06218600594395544,0.24116992950439453,2025
38468969,Bi Ei Glas Bg Glass Manufacturing Company,BGR,glass,high,ok,453.70100727165914,300411.137993264,42.169785,24.739872,38468969,5,16,34.293508903340644,213.88154700801798,6.236793896211159,539.6894463088657,60.18552769552196,66.87280855057996,45.75182088831079,0.0,21.12098766226916,90.0,30041.113799326406,True,False,7.638377747517554,26.655131155823085,0.3943781852722168,2025
38475230,Burov I Sie Ood,BGR,textiles-leather-apparel,high,ok,45.59560290369514,5447.494120690496,41.3641223,23.0707337,38475230,3,16,0.6218600594395542,2.2387054096930856,3.6000147874277353,10.617172310481118,44.39054471600457,49.322827462227295,26.40895859164487,0.0,22.91386887058242,90.00000000000001,544.749412069049,True,False,0.5596740534955988,0.06218600594395544,0.23081016540527344,2025
38479037,Darvodelnitsa Eood,BGR,textiles-leather-apparel,high,ok,19.283131427485923,5447.494120690496,41.5728211,23.7282719,38479037,3,16,0.6218600594395542,2.0799568191714015,3.3447345389024403,9.802682004524002,41.123088341532345,45.692320379480385,24.536275863753534,0.0,21.15604451572685,89.99999999999999,544.7494120690502,True,False,0.5596740534955988,0.06218600594395544,0.2233128547668457,2025
38479093,Designer Concepts Eood,BGR,textiles-leather-apparel,high,ok,216.24841632230385,5447.494120690496,42.6270424,23.4466431,38479093,3,16,0.6218600594395542,2.1587445947599515,3.471431493293685,9.42017665595821,41.21660146701155,45.79622385223506,25.46569832998641,0.0,20.330525522248653,89.99999999999999,544.7494120690495,True,False,0.5596740534955988,0.06218600594395544,0.2762448787689209,2025
32437257,Devnya Cement Plant,BGR,cement,high,ok,350.64124034229553,377100.3852069663,43.2344758161164,27.5948982801824,32437257,3,16,43.04798917887743,344.28316645850816,7.9976596590355795,717.9183822949985,72.94630548418804,81.05145053798674,58.66916533319352,0.0,22.382285204793224,89.99999999999997,37710.03852069676,True,False,0.0,43.04798917887743,0.24557018280029297,2025
45257068,Dimitrovgrad Fertilizer Complex,BGR,chemicals,high,ok,369.69827083706184,608213.5688614993,42.0514348,25.6174539,45257068,2,16,69.43077270108441,515.8386438165643,7.429539147394619,1100.6726996609007,68.19972748775947,75.77747498639943,54.50155160022036,0.0,21.27592338617906,89.99999999999999,60821.356886149995,True,False,0.0,69.43077270108441,0.13235712051391602,2025
38477240,D.San Eood,BGR,textiles-leather-apparel,high,ok,68.95213552465891,5447.494120690496,41.5503364,23.2642621,38477240,3,16,0.6218600594395542,2.031389800584292,3.2666349442269436,9.498377980049055,40.01638706768443,44.46265229742715,23.96335350548646,0.0,20.49929879194068,89.99999999999999,544.7494120690496,True,False,0.5596740534955988,0.06218600594395544,0.34308409690856934,2025
38479114,Dexa Group Ltd,BGR,textiles-leather-apparel,high,ok,490.8731516592977,5447.494120690496,43.5870818,27.8348966,38479114,3,16,0.6218600594395542,2.2062106846084064,3.54776070776556,9.638327559452339,42.144273036303964,46.82697004033774,26.02563354785279,0.0,20.801336492484953,89.99999999999999,544.7494120690496,True,False,0.5596740534955988,0.06218600594395544,0.2570509910583496,2025
38475511,Diss-3 Eood,BGR,textiles-leather-apparel,high,ok,65.47914569408199,5447.494120690496,41.5546421,23.2647575,38475511,3,16,0.6218600594395542,2.031295309860206,3.266482995693424,9.498379370078203,40.0153865711243,44.46154063458256,23.96223884269569,0.0,20.499301791886868,89.99999999999999,544.7494120690499,True,False,0.5596740534955988,0.06218600594395544,0.2968008518218994,2025
38469517,E.Miroglio Ead,BGR,textiles-leather-apparel,high,ok,231.19690318184152,5447.494120690496,42.660231,26.3334882,38469517,3,16,0.6218600594395542,2.0084044004089994,3.229672608687967,9.61063559263115,39.99039974475185,44.43377749416871,23.692205511287025,0.0,20.741571982881684,90.00000000000001,544.749412069049,True,False,0.5596740534955988,0.06218600594395544,0.23840999603271484,2025
38475621,E Miroglio Ead Spinning And Dyeing Yambol,BGR,textiles-leather-apparel,high,ok,93.60664856551884,5447.494120690496,42.4841999,26.5035023,38475621,3,16,0.6218600594395542,2.0058173855031813,3.2255124847717447,9.128746863894484,39.02692728540953,43.36325253934391,23.661687708798183,0.0,19.701564830545728,90.00000000000001,544.7494120690493,True,False,0.5596740534955988,0.06218600594395544,0.29319334030151367,2025
38475612,Elena Fashion Ltd,BGR,textiles-leather-apparel,high,ok,216.0305514712984,5447.494120690496,42.6742395,23.3007492,38475612,3,16,0.6218600594395542,2.1859815355709693,3.515230641345684,9.457163399834712,41.57761471015135,46.19734967794595,25.786999756662226,0.0,20.41034992128373,89.99999999999999,544.7494120690499,True,False,0.5596740534955988,0.06218600594395544,0.2621119022369385,2025
38479237,Et Vasti 2 -Rosen Mitov,BGR,textiles-leather-apparel,high,ok,58.43503275496611,5447.494120690496,41.5635838,23.2802706,38479237,3,16,0.6218600594395542,1.9961787748882849,3.21001283904183,9.481442266416465,39.60966046537038,44.01073385041154,23.54798553632491,0.0,20.46274831408663,89.99999999999999,544.7494120690498,True,False,0.5596740534955988,0.06218600594395544,0.23256301879882812,2025
38479162,Elit Jsc.,BGR,textiles-leather-apparel,high,ok,413.7315709704059,5447.494120690496,43.2388431,25.2994166,38479162,3,16,0.6218600594395542,2.364737794835026,3.802684798515963,9.685203091037806,43.91838571045607,48.79820634495119,27.89570357649576,0.0,20.90250276845543,89.99999999999999,544.7494120690499,True,False,0.5596740534955988,0.06218600594395544,0.2898588180541992,2025
38479234,Et Boris-Burov 2878,BGR,textiles-leather-apparel,high,ok,64.15580459505709,5447.494120690496,41.39810809999999,23.2066849,38479234,3,16,0.6218600594395542,2.0912188830863365,3.362844825523975,9.684755956512968,41.013600229318484,45.57066692146499,24.66912915400701,0.0,20.901537767457977,89.99999999999999,544.74941206905,True,False,0.5596740534955988,0.06218600594395544,0.24521493911743164,2025
38470276,Fashion Mania,BGR,textiles-leather-apparel,high,ok,335.42430191558043,5447.494120690496,43.4180995,24.628739,38470276,3,16,0.6218600594395542,2.883938668783231,4.637600735095216,9.843206487135602,49.73757929814606,55.26397699794007,34.02047297289605,0.0,21.243504025044015,89.99999999999999,544.74941206905,True,False,0.5596740534955988,0.06218600594395544,0.2163991928100586,2025
38479333,Fashco Fashion Service Company Ltd,BGR,textiles-leather-apparel,high,ok,220.4038582291748,5447.494120690496,43.4599598,25.7391449,38479333,3,16,0.6218600594395542,2.4777913811650527,3.984483877929288,10.271892351625524,46.25822976577148,51.39803307307942,29.229343754028513,0.0,22.168689319050905,90.00000000000001,544.749412069049,True,False,0.5596740534955988,0.06218600594395544,0.4398629665374756,2025
38474505,Geana Ltd.,BGR,textiles-leather-apparel,high,ok,165.66156097160666,5447.494120690496,43.7979981,25.9053209,38474505,3,16,0.6218600594395542,2.6136721996022327,4.202990946158821,10.340796444239926,47.83469714404985,53.14966349338872,30.8322660911833,0.0,22.317397402205422,89.99999999999999,544.7494120690494,True,False,0.5596740534955988,0.06218600594395544,0.22461414337158203,2025
38479419,Feshko Fashion Services Company Ood,BGR,textiles-leather-apparel,high,ok,0.0,5447.494120690496,42.8799008,27.8811178,38479419,3,16,0.6218600594395542,-0.0,-0.0,0.0,0.0,,,,,0.0,5447.494120690496,False,False,0.5596740534955988,0.06218600594395544,0.3235328197479248,2025
38477463,Greek Style,BGR,textiles-leather-apparel,high,ok,56.16158444140937,5447.494120690496,41.5678434,23.2803538,38477463,3,16,0.6218600594395542,2.1353919729068753,3.4338786363468623,10.345083912969294,42.765182069012035,47.51686896556892,25.190218393745585,0.0,22.326650571823333,90.00000000000001,544.7494120690487,True,False,0.5596740534955988,0.06218600594395544,0.2760920524597168,2025
38471178,Kalinel Ltd.,BGR,textiles-leather-apparel,high,ok,26.066000731696395,5447.494120690496,42.8710995,24.7279875,38471178,3,16,0.6218600594395542,2.3194565366907605,3.7298689656659243,9.791911017034687,43.64490643103693,48.494340478929914,27.361541794364076,0.0,21.132798684565834,90.00000000000001,544.7494120690492,True,False,0.5596740534955988,0.06218600594395544,0.27176809310913086,2025
38472264,Hrisa Tekstil,BGR,textiles-leather-apparel,high,ok,77.12181026926581,5447.494120690496,41.4214375,23.2143125,38472264,3,16,0.6218600594395542,2.131612092348893,3.427800290422236,9.466857351349633,41.019210197081854,45.576900218979844,25.145628914171855,0.0,20.431271304807986,89.99999999999999,544.7494120690494,True,False,0.5596740534955988,0.06218600594395544,0.3123350143432617,2025
40691242,"Lukoil Neftohim Burgas, Burgas",BGR,petrochemical-steam-cracking,high,ok,364.0241281505278,1595714.110047918,42.5403,27.32689,40691242,1,16,182.15914498263905,1403.6775444060938,7.705775872739595,3035.9184064869733,71.00610040619313,78.89566711799236,56.52796667679273,0.0,22.367700441199624,90.0,159571.4110047918,True,False,0.0,182.15914498263905,0.03704214096069336,2025
38480258,Karlsberg Bg Brewery,BGR,food-beverage-tobacco,high,ok,61.836005339522295,475540.2475974528,42.004527,23.092694,38480258,4,16,54.28541639240328,187.0884167381922,3.446384483556682,821.4684915334796,41.03192253148143,45.591025034979374,25.281958683888547,0.0,20.309066351090827,89.99999999999999,47554.02475974531,True,False,45.35286851813561,8.93254787426767,0.24128413200378418,2025
38479722,Izi Company Ltd,BGR,textiles-leather-apparel,high,ok,41.89679256807075,5447.494120690496,43.7666556,25.9648501,38479722,3,16,0.6218600594395542,2.503694580279635,4.026138264187713,10.88703742261967,47.728080497998896,53.03120055333211,29.534911654944032,0.0,23.49628889838808,89.99999999999999,544.7494120690498,True,False,0.5596740534955988,0.06218600594395544,0.4378829002380371,2025
38477988,Nova Linia,BGR,textiles-leather-apparel,high,ok,165.66156097160666,5447.494120690496,43.7979981,25.9053209,38477988,3,16,0.6218600594395542,2.6136721996022327,4.202990946158821,10.340796444239926,47.83469714404985,53.14966349338872,30.8322660911833,0.0,22.317397402205422,89.99999999999999,544.7494120690494,True,False,0.5596740534955988,0.06218600594395544,0.2035231590270996,2025
38480055,Manchevi Eood,BGR,textiles-leather-apparel,high,ok,191.56133019633643,5447.494120690496,42.0774024,26.6532307,38480055,3,16,0.6218600594395542,1.8506730283155286,2.9760281275877905,8.943655307574222,37.02026216327019,41.13362462585577,21.83152243249335,0.0,19.302102193362412,89.99999999999999,544.7494120690494,True,False,0.5596740534955988,0.06218600594395544,0.26524996757507324,2025
38480171,Modelo Ltd.,BGR,textiles-leather-apparel,high,ok,30.051738174461455,5447.494120690496,41.5196569,23.7960616,38480171,3,16,0.6218600594395542,2.0992318968747536,3.3757303834027663,9.445461791908631,40.63387550172504,45.14875055747227,24.76365492252319,0.0,20.385095634949074,90.00000000000001,544.7494120690493,True,False,0.5596740534955988,0.06218600594395544,0.26938962936401367,2025
38476354,S&P Textile Eood,BGR,textiles-leather-apparel,high,ok,68.95213552465891,5447.494120690496,41.5503364,23.2642621,38476354,3,16,0.6218600594395542,2.031389800584292,3.2666349442269436,9.498377980049055,40.01638706768443,44.46265229742715,23.96335350548646,0.0,20.49929879194068,89.99999999999999,544.7494120690496,True,False,0.5596740534955988,0.06218600594395544,0.23893404006958008,2025
38478005,Saime Stil Eood,BGR,textiles-leather-apparel,high,ok,13.409261732967362,5447.494120690496,41.5718061,23.9467592,38478005,3,16,0.6218600594395542,2.0650708256138732,3.320796687722636,9.579604721512883,40.53174683325035,45.03527425916706,24.360672773791755,0.0,20.67460148537531,89.99999999999999,544.7494120690494,True,False,0.5596740534955988,0.06218600594395544,0.21979475021362305,2025
45257185,Solvay Sodi Devnya Soda Ash Plant,BGR,chemicals,high,ok,319.64721387517864,4013828.580540185,43.199671,27.64172,45257185,3,16,458.1996096507061,1985.619670958472,4.333525452961747,7227.469791006444,47.66354604330368,52.95949560367076,31.789840042539872,0.0,21.16965556113089,90.0,401382.8580540186,True,False,320.7397267554943,137.45988289521182,0.27251601219177246,2025
1566444,Stomana Industry Pernik steel plant,BGR,iron-and-steel,high,ok,124.63163825989888,339038.5458818092,42.5926210644345,23.1034276804564,1566444,3,16,38.703030351804706,310.275045416341,8.01681528800168,605.2604772029804,71.81828853834323,79.79809837593692,58.80968703714021,0.0,20.988411338796716,89.99999999999999,33903.85458818093,True,False,0.12114011416406457,38.58189023764064,0.15834903717041016,2025
38478238,Stohi Ltd,BGR,textiles-leather-apparel,high,ok,63.31372375566121,5447.494120690496,42.01563429999999,23.0961769,38478238,3,16,0.6218600594395542,1.9955197557882969,3.2089530843751906,9.365303403640638,39.37707904221856,43.75231004690952,23.540211396839055,0.0,20.21209865007046,89.99999999999999,544.7494120690495,True,False,0.5596740534955988,0.06218600594395544,0.2511599063873291,2025
44375334,Stambolijski Kraft Pulp & Paper Mill,BGR,pulp-and-paper,high,ok,308.9488470447042,119754.89958307274,42.1340315,24.5212027,44375334,4,16,13.670650637337072,56.980860102014496,4.168116179224802,214.90439042284697,46.506859311783145,51.6742881242035,30.57643206542591,0.0,21.097856058777587,89.99999999999999,11975.489958307286,True,False,13.304004834803127,0.36664580253394446,0.31452012062072754,2025
44375333,"Svilocell EAD, Subsidiary of Svilosa AD",BGR,pulp-and-paper,high,ok,339.9561473809735,114888.89242802116,43.618351,25.3506224,44375333,4,16,13.115170368495566,75.70630501074285,5.772422536927142,218.72518948599952,58.25494051343165,64.72771168159072,42.3452893259113,0.0,22.38242235567942,90.0,11488.8892428021,True,False,12.836969784921418,0.2782005835741484,0.1917438507080078,2025
44375335,Svistov Pulp Plant,BGR,pulp-and-paper,high,ok,321.8449182310778,114888.89242802116,43.63592,25.30431,44375335,4,16,13.115170368495567,73.62556238464535,5.6137709473834985,218.67701587296898,57.20305230177816,63.55894700197573,41.18145431240282,0.0,22.37749268957291,90.0,11488.889242802124,True,False,12.763422504206414,0.35174786428915317,0.12917804718017578,2025
32437259,Zlatna Panega Cement Plant,BGR,cement,high,ok,103.51546369311812,670231.2278398518,43.0879288257691,24.1750943535129,32437259,3,16,76.51041413696937,629.6373561208525,8.22943338136521,1274.717763078121,74.45664923479347,82.72961026088161,60.369409081361006,0.0,22.360201179520615,90.00000000000001,67023.12278398512,True,False,0.0,76.51041413696937,0.1443619728088379,2025
38478477,Ubi-2 Eood,BGR,textiles-leather-apparel,high,ok,10.81387778522997,5447.494120690496,41.5289091,23.9853567,38478477,3,16,0.6218600594395542,2.058283704317156,3.309882461613897,9.389077176189192,40.08961371490891,44.544015238787686,24.280608284509068,0.0,20.263406954278622,89.99999999999999,544.7494120690505,True,False,0.5596740534955988,0.06218600594395544,0.24368691444396973,2025
38476920,Ace Sport S.R.O.,CZE,textiles-leather-apparel,high,ok,272.36058489956645,199683.057560684,49.3136152,14.1591341,38476920,3,16,22.794869584552966,165.66677621598518,7.2677220460278456,387.7557821665807,62.1426662273741,69.04740691930455,46.217539335058795,0.0,22.82986758424575,90.00000000000001,19968.30575606838,True,False,20.51538262609767,2.279486958455297,0.1531829833984375,2025
38480347,Agricol S.R.O.,CZE,food-beverage-tobacco,high,ok,248.79220094968787,131174.02086502424,49.719244,16.26695,38480347,4,16,14.974203295094089,106.86955177659745,7.136910703730762,241.10075411256963,60.29531236890382,66.99479152100426,45.38567230439938,0.0,21.609119216604878,89.99999999999999,13117.402086502429,True,False,12.5102305248463,2.4639727702477887,0.2236030101776123,2025
32438303,Vassiliko Cement Plant,CYP,cement,high,ok,72.23317120049477,420612.2431384637,34.7235696842141,33.3162181445185,32438303,3,16,48.01509624868307,203.80043289799642,4.244507432463725,663.1102307872466,43.17570530977092,47.97300589974546,29.438110204108597,0.0,18.534895695636862,90.00000000000001,42061.224313846324,True,False,0.0,48.01509624868307,0.2650868892669678,2025
38476979,Alena Cendelinova,CZE,textiles-leather-apparel,high,ok,269.304618673843,199683.057560684,49.3434598,14.1505469,38476979,3,16,22.794869584552966,205.40343677331057,9.010950293503896,407.3464926361381,73.15788471921067,81.28653857690074,57.303230227949236,0.0,23.983308348951496,90.00000000000001,19968.305756068377,True,False,20.51538262609767,2.279486958455297,0.19765496253967285,2025
38480307,Adm Olomouc S.R.O.,CZE,food-beverage-tobacco,high,ok,406.3417538509743,131174.02086502424,49.584855,17.309113,38480307,4,16,14.974203295094089,124.6243972885655,8.3226062069957,249.786978083845,67.78214148176146,75.3134905352905,52.92585177390733,0.0,22.387638761383172,90.0,13117.402086502425,True,False,12.5102305248463,2.4639727702477887,0.2344827651977539,2025
38468972,Trakia Glass Bg Glass Manufacturing Company,BGR,glass,high,ok,253.4266407194509,340849.04663059395,43.275276,26.519583,38468972,5,16,38.9097085194742,298.21741138810546,7.6643445231374185,648.8502826181697,70.74403308665113,78.60448120739014,56.22403492632855,0.0,22.380446281061587,90.0,34084.904663059395,True,False,8.666568724572654,30.243139794901545,0.46029210090637207,2025
38480303,Agrodružstvo Jevišovice - Středisko Jevišovice,CZE,food-beverage-tobacco,high,ok,388.6657573052169,131174.02086502424,48.977221,15.994444,38480303,4,16,14.974203295094089,96.85976412992311,6.468441907801313,241.74528352072406,56.52141566179355,62.80157295754838,41.13468655199098,0.0,21.666886405557403,90.0,13117.402086502425,True,False,12.5102305248463,2.4639727702477887,0.3010709285736084,2025
38472848,Amreiters S.R.O.,CZE,textiles-leather-apparel,high,ok,139.49868581138938,199683.057560684,50.2126762,12.2008194,38472848,3,16,22.794869584552966,229.00911325274092,10.046520003252391,402.75268297940664,78.8413999255229,87.60155547280321,63.88871650430664,0.0,23.712838968496566,90.00000000000001,19968.305756068374,True,False,20.51538262609767,2.279486958455297,0.15088820457458496,2025
44375503,Biocel Paskov a.s.,CZE,pulp-and-paper,high,ok,246.21136939507923,133720.78587427523,49.717969,18.2946046,44375503,4,16,15.264929894323657,185.34673479253595,12.141997118601775,269.8982430204453,90.84950833889593,100.9438981543288,77.21445948003141,0.0,23.7294386742974,90.0,13372.07858742752,True,False,14.94112835111073,0.323801543212926,0.1516270637512207,2025
33998934,CZE-Most_ammonia,CZE,chemicals,high,ok,208.03652245893167,430049.9981848985,50.5521841185891,13.6253630022868,33998934,2,16,49.09246554622129,923.0121557916119,18.801503357426245,843.0077497428799,128.34932303812892,142.61035893125435,119.56417918528062,0.0,23.04617974597371,90.0,43004.999818489814,True,False,0.0,49.09246554622129,0.11362218856811523,2025
32438307,Cizkovice Cement Plant,CZE,cement,high,ok,266.9089694829494,502380.4036465596,50.4892392146656,14.0442571348417,32438307,3,16,57.34936114686754,942.7946158667146,16.439496395649225,956.6534748869325,114.23802136777503,126.9311348530834,104.54349609170023,0.0,22.38763876138317,89.99999999999999,50238.04036465607,True,False,0.0,57.34936114686754,0.16786670684814453,2025
38480340,Cukrovar Dobrovice,CZE,food-beverage-tobacco,high,ok,415.6367147164983,385744.76721484633,50.368128,14.964525,38480340,4,16,44.03479077795049,340.36737042480854,7.729510335160726,750.0546956913378,64.81290752874243,72.0143416986027,49.15418417126759,0.0,22.860157527335115,89.99999999999999,38574.47672148466,True,False,36.78896118139521,7.245829596555287,0.20346307754516602,2025
38480312,Cukrovar Vrbátky A.S.,CZE,food-beverage-tobacco,high,ok,498.1587864307855,131174.02086502424,49.506128,17.203389,38480312,4,16,14.974203295094089,133.9791187471382,8.947328689669453,249.786978083845,71.3576527850625,79.28628087229166,56.8986421109085,0.0,22.387638761383172,90.0,13117.402086502418,True,False,12.5102305248463,2.4639727702477887,0.18822598457336426,2025
1566770,GFG Liberty Ostrava steel plant,CZE,iron-and-steel,high,ok,217.1218104514444,2071913.4378984312,49.7928436973819,18.3216516834452,1566770,3,16,236.51979884685286,5727.993553100702,24.217818470282023,4043.286673959099,159.2559341989867,176.95103799887414,154.00808818374077,0.0,22.94294981513335,89.99999999999999,207191.34378984338,True,False,0.0,236.51979884685286,0.19524717330932617,2025
38477504,Gufex S.R.O.,CZE,textiles-leather-apparel,high,ok,98.03007306314848,199683.057560684,49.3877335,17.8812314,38477504,3,16,22.794869584552966,221.4823474335573,9.716324395365072,411.54705761334884,77.41757893569759,86.01953215077509,61.788907458343395,0.0,24.230624692431686,90.00000000000001,19968.305756068374,True,False,20.51538262609767,2.279486958455297,0.1676011085510254,2025
38480345,Drůbežářský Závod Klatovy A. S.,CZE,food-beverage-tobacco,high,ok,231.23497631810017,131174.02086502424,49.383049,13.298954,38480345,4,16,14.974203295094089,119.28399614031886,7.965966121175821,250.41867076230437,65.79191709373869,73.10213010415409,50.65787467042857,0.0,22.44425543372552,90.00000000000001,13117.402086502403,True,False,12.5102305248463,2.4639727702477887,0.2538437843322754,2025
38480282,Cukrovar České Meziříčí,CZE,food-beverage-tobacco,high,ok,408.9723865736727,131174.02086502424,50.28568,16.051022,38480282,4,16,14.974203295094089,137.34563810145187,9.172149956482134,244.68077018752422,72.2324973581464,80.25833039794045,58.32834534893367,0.0,21.929985049006785,89.99999999999999,13117.402086502429,True,False,12.5102305248463,2.4639727702477887,0.2800469398498535,2025
38480302,Glencore Agriculture Czech S.R.O.,CZE,food-beverage-tobacco,high,ok,47.051607261371224,131174.02086502424,50.653985,14.052872,38480302,4,16,14.974203295094089,121.79789083678625,8.13384782058423,250.9780720382515,66.7978880733475,74.21987563705277,51.7254827870991,0.0,22.494392849953666,90.00000000000001,13117.40208650241,True,False,12.5102305248463,2.4639727702477887,0.2924020290374756,2025
38480309,Farma Nevojice,CZE,food-beverage-tobacco,high,ok,238.62253319063092,131174.02086502424,49.140153,17.038325,38480309,4,16,14.974203295094089,114.19972241142388,7.62643061276178,253.92711109392636,64.13163899150949,71.25737665723275,48.49867050488789,0.0,22.758706152344857,90.00000000000001,13117.402086502405,True,False,12.5102305248463,2.4639727702477887,0.3075137138366699,2025
38474175,Intimidea  Sro,CZE,textiles-leather-apparel,high,ok,290.9446145695193,199683.057560684,49.4052328,15.5881164,38474175,3,16,22.794869584552966,135.4606521412944,5.94259386476551,340.52467265658805,52.05574118839194,57.83971243154659,37.79066727616384,0.0,20.049045155382753,90.00000000000003,19968.30575606836,True,False,20.51538262609767,2.279486958455297,0.16475701332092285,2025
32438306,Mokra Cement Plant,CZE,cement,high,ok,248.55779616211447,447612.19021282694,49.2136957209378,16.7741774818981,32438306,3,16,51.09728198776563,1077.7079808841029,21.091297598610854,919.7605194783876,142.4551870352649,158.28354115029433,134.1256407740574,0.0,24.157900376236945,90.0,44761.2190212827,True,False,0.0,51.09728198776563,0.17860984802246094,2025
32438304,Hranice Cement Plant,CZE,cement,high,ok,306.9986511218634,365128.9148842065,49.5605172797816,17.7649229827291,32438304,3,16,41.68138297764914,887.4244899186402,21.29066807582908,771.1397836879635,144.20096504257262,160.22329449174737,135.39349510512926,0.0,24.82979938661809,90.0,36512.891488420646,True,False,0.0,41.68138297764914,0.16364598274230957,2025
38480342,Hamé S.R.O.,CZE,food-beverage-tobacco,high,ok,213.38691754022085,131174.02086502424,49.120379,17.468818,38480342,4,16,14.974203295094089,120.48907746084316,8.04644327891009,253.1277721120618,66.47104437343901,73.85671597048778,51.169652113154264,0.0,22.687063857333513,90.00000000000001,13117.402086502414,True,False,12.5102305248463,2.4639727702477887,0.22955799102783203,2025
38480344,"Litovelská Cukrovarna, A.S.",CZE,food-beverage-tobacco,high,ok,410.28881074838114,131174.02086502424,49.709594,17.07195,38480344,4,16,14.974203295094089,133.07997105300888,8.887282243363765,249.786978083845,71.01398539123002,78.90442821247781,56.51678945109463,0.0,22.387638761383172,90.0,13117.402086502416,True,False,12.5102305248463,2.4639727702477887,0.2350766658782959,2025
38480341,"Jacom, Spol. S R.O.",CZE,food-beverage-tobacco,high,ok,342.3876698353439,131174.02086502424,49.336545,17.570149,38480341,4,16,14.974203295094089,134.88875336335127,9.008075468532212,249.65630352926993,71.69478767117239,79.66087519019153,57.28494838731627,0.0,22.37592680287527,90.00000000000001,13117.402086502412,True,False,12.5102305248463,2.4639727702477887,0.31076908111572266,2025
38480305,"Moravskoslezské Cukrovary, A.S.  Závod Hrušovany",CZE,food-beverage-tobacco,high,ok,535.2675542572288,131174.02086502424,48.811221,16.404268,38480305,4,16,14.974203295094089,104.68548707941997,6.991055551764645,252.3938468813548,60.371479572775854,67.07942174752874,44.45813735183479,0.0,22.621284395693944,89.99999999999999,13117.402086502429,True,False,12.5102305248463,2.4639727702477887,0.22787094116210938,2025
38480301,"Moravskoslezské Cukrovary, A.S. O.Z. Opava",CZE,food-beverage-tobacco,high,ok,458.80409880382626,3661.701295399493,49.959094,17.869164,38480301,4,16,0.4180024309816772,3.7542014188936155,8.981290874497756,7.071664776408079,71.83782381947393,79.81980424385992,57.11461743347391,0.0,22.705186810386017,90.0,366.17012953994936,True,False,0.34922103490074724,0.06878139608092997,0.20905423164367676,2025
38468982,"O-I Manufacturing Czech Republic, A.S., Závod Nové Sedlo",CZE,glass,high,ok,104.66637701921007,188735.18582918937,50.211693,12.739065,38468982,5,16,21.545112537578696,403.5405279867573,18.730026463445355,359.83200190663655,127.37191767453712,141.52435297170788,119.10963701399393,0.0,22.41471595771394,90.00000000000001,18873.51858291893,True,False,4.798858834733336,16.746253702845358,0.33364391326904297,2025
44375502,"OP Papírna s.r.o., delfort",CZE,pulp-and-paper,high,ok,114.15949714665337,133720.78587427523,49.9596659,16.8653919,44375502,4,16,15.264929894323656,179.90546842689315,11.78554173994549,269.72918708741213,88.79600904175247,98.66223226861386,74.94765698264585,0.0,23.714575285968003,89.99999999999999,13372.078587427524,True,False,14.767932176834048,0.49699771748960736,0.21892023086547852,2025
38475103,Personna International Cz S.R.O.,CZE,textiles-leather-apparel,high,ok,95.55251143481134,199683.057560684,50.6604737,13.8790054,38475103,3,16,22.794869584552966,173.58634839835972,7.615149880742955,375.4916511195093,63.48125371976443,70.53472635529381,48.426933078427936,0.0,22.107793276865877,89.99999999999999,19968.305756068403,True,False,20.51538262609767,2.279486958455297,0.1412649154663086,2025
38468991,"O-I Manufacturing Czech Republic, A.S., Závod Rudolfova Huť",CZE,glass,high,ok,105.56169538282018,108846.14583020672,50.664721,13.798055,38468991,5,16,12.425359113037297,185.0392075718778,14.892061137913155,208.6818438150374,105.51880638056171,117.24311820062412,94.70290925583434,0.0,22.540208944789782,90.0,10884.614583020662,True,False,2.767567087446484,9.657792025590814,0.31714510917663574,2025
38480346,"Olma, A.S.",CZE,food-beverage-tobacco,high,ok,417.5145315907977,131174.02086502424,49.585803,17.298728,38480346,4,16,14.974203295094089,124.75594720678137,8.331391309990725,249.786978083845,67.83242178370439,75.36935753744933,52.98171877606615,0.0,22.387638761383172,90.0,13117.402086502427,True,False,12.5102305248463,2.4639727702477887,0.2360987663269043,2025
38480311,Pepsico Cz S.R.O. Praha,CZE,food-beverage-tobacco,high,ok,311.9855429053073,131174.02086502424,50.109525,14.520942,38480311,4,16,14.974203295094089,104.53078594423218,6.980724375398255,239.46161763769794,59.26918219029428,65.85464687810476,44.39243842346809,0.0,21.462208454636666,90.0,13117.402086502425,True,False,12.5102305248463,2.4639727702477887,0.2720611095428467,2025
32438305,Prachovice Cement Plant,CZE,cement,high,ok,308.7378779970939,368334.0781073864,49.8954278608157,15.639196089567,32438305,3,16,42.04726919034092,733.8091827321133,17.452005727417934,782.9410624962228,122.37547630418604,135.97275144909557,110.98233477757293,0.0,24.99041667152265,90.00000000000001,36833.407810738616,True,False,0.0,42.04726919034092,0.15324902534484863,2025
38480339,Pivovar Plzeň,CZE,food-beverage-tobacco,high,ok,268.35890839264067,131174.02086502424,49.746885,13.386982,38480339,4,16,14.974203295094089,106.29134458069159,7.098297150507847,239.21583768198212,59.922267788226016,66.58029754247335,45.14011758950464,0.0,21.440179952968702,90.0,13117.402086502427,True,False,12.5102305248463,2.4639727702477887,0.25162386894226074,2025
18648344,"Unipetrol, Litvinov",CZE,petrochemical-steam-cracking,high,ok,179.8297812777887,3421105.4006477064,50.568272,13.60227,18648344,1,16,390.53714619266054,7339.536622851765,18.793440507272543,6708.1253827833025,128.30900866880745,142.56556518756383,119.51290519712155,0.0,23.052659990442287,90.0,342110.5400647707,True,False,0.0,390.53714619266054,0.03737902641296387,2025
42546160,Radotin Cement Plant,CZE,cement,high,ok,220.6210834763721,328479.1389072515,49.9956970504138,14.3393698755715,42546160,3,16,37.497618596718205,812.7323697554799,21.6742395962876,735.2545432787601,147.73366548893551,164.14851720992834,137.83273696417763,0.0,26.315780245750712,90.00000000000001,32847.91389072514,True,False,0.0,37.497618596718205,0.1442549228668213,2025
38480314,"Raciola Uherský Brod, S.R.O.",CZE,food-beverage-tobacco,high,ok,191.84809581303247,131174.02086502424,49.023144,17.640751,38480314,4,16,14.974203295094089,129.5737920815124,8.653134295563085,249.50510465867214,69.65113542604456,77.39015047338285,55.02777516034919,0.0,22.36237531303365,90.0,13117.40208650242,True,False,12.5102305248463,2.4639727702477887,0.21514892578125,2025
38480310,Středisko Opatovec,CZE,food-beverage-tobacco,high,ok,336.742556322429,131174.02086502424,49.803336,16.473611,38480310,4,16,14.974203295094089,123.7867503013378,8.266666871144546,249.786978083845,67.46198055721953,74.95775617468836,52.5701174133052,0.0,22.38763876138317,90.00000000000001,13117.402086502414,True,False,12.5102305248463,2.4639727702477887,0.21664190292358398,2025
38480306,Skaličan A.S.,CZE,food-beverage-tobacco,high,ok,361.6608895264048,131174.02086502424,50.385798,16.037955,38480306,4,16,14.974203295094089,139.5443441355762,9.318982879128823,248.14779915690406,73.35254017948917,81.5028224216546,59.262098227088075,0.0,22.24072419456652,90.00000000000003,13117.402086502381,True,False,12.5102305248463,2.4639727702477887,0.20687222480773926,2025
32440699,TZMS Třinecké železárny Trinec steel plant,CZE,iron-and-steel,high,ok,170.9068046198437,1613304.2602173532,49.6902275497972,18.6496641755199,32440699,3,16,184.16715299284851,4346.653061591489,23.60167375645035,3258.9165556199723,156.45486132874595,173.83873480971772,150.0898463512579,0.0,23.748888458459806,90.0,161330.4260217353,True,False,0.0,184.16715299284851,0.16204595565795898,2025
38480304,Procházka Spol. S R. O.,CZE,food-beverage-tobacco,high,ok,441.2812201393321,131174.02086502424,50.428069,14.285056,38480304,4,16,14.974203295094089,112.4115645970343,7.507014722704015,243.1695465086325,62.58042824152797,69.5338091572533,47.73927043963743,0.0,21.794538717615875,90.0,13117.40208650242,True,False,12.5102305248463,2.4639727702477887,0.2209179401397705,2025
38468978,Vetropack Moravia Glass Akciová Společnost,CZE,glass,high,ok,211.35326280601512,232021.5774604766,49.003155,17.126594,38468978,5,16,26.486481445259887,398.94708934901956,15.062290934095232,444.456006709015,106.47576086430452,118.30640096033832,95.78544959670279,0.0,22.520951363635536,90.00000000000001,23202.157746047633,True,False,5.89947651760423,20.58700492765566,0.35143494606018066,2025
38480538,Adm Spyck Gmbh,DEU,food-beverage-tobacco,high,ok,229.31537563178813,489819.85277749464,51.834743,6.172017,38480538,4,16,55.91550830793319,655.7783302271541,11.728022333548447,991.0311033802355,77.24735194930588,85.83039105478429,62.04352487081469,0.0,23.786866183969604,90.00000000000003,48981.985277749394,True,False,46.714732334065545,9.200775973867643,0.1846320629119873,2025
38480308,"Žerotín, A.S.",CZE,food-beverage-tobacco,high,ok,222.85922471268736,131174.02086502424,48.889306,17.304864,38480308,4,16,14.974203295094089,122.68701978769596,8.19322520002725,245.06438508112709,66.66070313718251,74.06744793020279,52.10308065788178,0.0,21.964367272321013,89.99999999999999,13117.402086502432,True,False,12.5102305248463,2.4639727702477887,0.25423407554626465,2025
38480521,Adm  Mainz Gmbh,DEU,food-beverage-tobacco,high,ok,185.83442220696065,489819.85277749464,49.973827,8.317314,38480521,4,16,55.91550830793319,464.02041974592794,8.29859968705844,970.1039131677531,60.46720133494846,67.18577926105385,43.90121040306413,0.0,23.28456885798972,90.0,48981.98527774945,True,False,46.714732334065545,9.200775973867643,0.2641122341156006,2025
38480343,Závod Vodňany,CZE,food-beverage-tobacco,high,ok,321.44352319809036,131174.02086502424,49.141484,14.191872,38480343,4,16,14.974203295094089,97.37466820687649,6.5028279827601105,247.01263219016317,57.143106165604934,63.49234018400546,41.353357514078056,0.0,22.138982669927397,90.00000000000003,13117.402086502385,True,False,12.5102305248463,2.4639727702477887,0.26138806343078613,2025
38468989,Závod Barevka,CZE,glass,high,ok,107.50163674799973,85402.90975572575,50.659444,13.799166,38468989,5,16,9.74919061138422,145.20011278570794,14.8935556369322,163.73592887336173,105.52734640937177,117.2526071215242,94.71241320587009,0.0,22.540193915654132,89.99999999999999,8540.290975572583,True,False,2.1714896784752784,7.577700932908941,0.31687402725219727,2025
38468988,"Závod Řetenice, Coating, Vedení Společnosti",CZE,glass,high,ok,112.78467139209415,1171292.6894069335,50.640535,13.801103,38468988,5,16,133.709211119513,1910.4809797580801,14.288327361758492,2090.3042802485884,100.660316478286,111.84479608698446,90.86359215336178,0.0,20.98120393362269,89.99999999999999,117129.2689406934,True,False,29.781771988748698,103.92743913076428,0.38363194465637207,2025
38478624,Adolf Sauter Gmbh & Co. Kg,DEU,textiles-leather-apparel,high,ok,95.30929248640112,108353.35994157154,48.6955454,9.7028718,38478624,3,16,12.369105016161136,84.13189464549527,6.801777051417287,189.6731815368767,50.90664619817229,56.562940220191436,35.982726810485396,0.0,20.58021340970604,90.0,10835.335994157153,True,False,11.132194514545022,1.2369105016161135,0.15778207778930664,2025
38480536,Adm Spyck Gmbh Werk Straubing,DEU,food-beverage-tobacco,high,ok,304.7726303635289,489819.85277749464,48.901901,12.659658,38480536,4,16,55.91550830793319,375.6765046923244,6.7186459724810215,932.7351561225747,52.13752735988016,57.930585955422394,35.542947194039236,0.0,22.387638761383155,90.00000000000001,48981.98527774941,True,False,46.714732334065545,9.200775973867643,0.20247507095336914,2025
1566773,AG der Dillinger Hüttenwerke Dillingen steel plant,DEU,iron-and-steel,high,ok,119.56488309443932,2923753.543554074,49.3530201103469,6.74528835249818,1566773,3,16,333.7618200404194,5977.587626970367,17.90974062355744,5647.977639302699,105.71142515660016,120.1902261702862,96.95064647006194,0.0,23.239579700224258,87.95342893092456,352212.04850885307,False,False,0.0,333.7618200404194,0.4588470458984375,2025
32438333,Allmendingen Cement Plant,DEU,cement,high,ok,207.5213657264205,432257.07573310565,48.3331703219914,9.73330639152596,32438333,3,16,49.34441503802576,727.7104035261772,14.747573823002856,835.0393782741089,90.65638891211778,100.72932101346419,78.01754100128939,0.0,22.711780012174803,90.00000000000001,43225.707573310516,True,False,0.0,49.34441503802576,0.1940159797668457,2025
32438312,Amoneburg Cement Plant,DEU,cement,high,ok,130.11794426293537,267832.8581222485,50.0322556711509,8.25738561028843,32438312,3,16,30.57452718290508,660.064955064254,21.588721588908545,531.4225831401588,123.78216539694274,137.53573932993638,114.20854656790875,0.0,23.32719276202763,90.0,26783.28581222483,True,False,0.0,30.57452718290508,0.16946101188659668,2025
43765081,Aluminium Oxid Stade GmbH (AOS) Alumina Refinery,DEU,aluminum,high,ok,238.19437403796007,2080037.8737640132,53.65281,9.493854,43765081,2,16,237.44724586347184,4482.697142893433,18.878707675013036,4208.4497339584805,111.29301967469009,123.65891074965566,99.87204456568605,0.0,23.786866183969614,89.99999999999999,208003.78737640136,True,False,178.08543439760388,59.36181146586796,0.09108781814575195,2025
38469134,Agc F Glass Gmbh,DEU,glass,high,ok,462.80707147460873,382610.78311999096,52.063711,11.555506,38469134,5,16,43.67703003652864,921.0971353239743,21.08882253563551,744.4604772063238,120.99554300738268,134.43949223042515,111.56398310592408,0.0,22.875509124501068,90.00000000000003,38261.07831199898,True,False,9.728419895701519,33.94861014082713,0.3523900508880615,2025
1566776,ArcelorMittal Bremen steel plant,DEU,iron-and-steel,high,ok,216.0297805061809,3751759.538568436,53.1312378958179,8.68913865827406,1566776,3,16,428.28305234799495,10801.489025309045,25.220444671092093,7569.675480710855,141.4276465260007,157.6151444237845,133.82293723963824,0.0,23.79220718414628,89.72973190047018,385315.76306066103,False,False,0.0,428.28305234799495,0.4037320613861084,2025
38469113,Ardagh Glass Gmbh,DEU,glass,high,ok,350.26875282216463,101037.6886699456,53.946107,10.194237,38469113,5,16,11.533982724879635,334.74300743325557,29.022326061854653,204.42514021792948,159.58856683419833,177.32062981577596,153.53376363180632,0.0,23.786866183969614,90.0,10103.768866994558,True,False,2.569026028636874,8.96495669624276,0.3084249496459961,2025
38469092,Ardagh Glass Gmbh,DEU,glass,high,ok,71.70212482733824,138902.9006330009,51.626076,7.512943,38469092,5,16,15.856495506050333,425.83872624937334,26.85579080742569,282.7750532995155,149.405773362564,166.00641484729329,142.07236970547075,0.0,23.93404514182254,90.00000000000001,13890.290063300072,True,False,3.5318025568164737,12.32469294923386,0.37339019775390625,2025
1566778,ArcelorMittal Duisburg steel plant,DEU,iron-and-steel,high,ok,60.970834047246726,1185309.2895813545,51.462419615216,6.74314200082803,1566778,3,16,135.3092796325747,3047.58372011308,22.523094708571616,2432.471874181531,128.9506634466631,144.5772540359686,120.2316044061596,0.0,24.345649629809,89.19152899015647,128113.81094138292,False,False,0.0,135.3092796325747,0.468796968460083,2025
1566775,ArcelorMittal Eisenhüttenstadt steel plant,DEU,iron-and-steel,high,ok,112.53187815458668,2364154.3317248058,52.1669738304436,14.6254069840339,1566775,3,16,269.8806314754344,5625.727652078258,20.845244141168884,5057.375545026659,121.88274642383838,140.56143589856143,114.45772980970254,0.0,26.103706088858882,86.71136976133138,314163.7274143765,False,False,0.0,269.8806314754344,0.5131311416625977,2025
38469050,Ardagh Glass Gmbh,DEU,glass,high,ok,210.1437317264011,116966.11878889396,52.536864,13.713597,38469050,5,16,13.352296665398853,388.7776493358102,29.116912174614033,236.65243681765938,160.03890791518094,177.82100879464545,154.03414261067584,0.0,23.786866183969604,90.00000000000003,11696.611878889365,True,False,2.9740288756890747,10.378267789709778,0.370028018951416,2025
38469051,Ardagh Glass Gmbh,DEU,glass,high,ok,220.7763582461696,123436.44645716228,51.649411,14.2294,38469051,5,16,14.090918545338162,343.3279939091833,24.365196122914917,255.762869940561,137.93113239084468,153.2568137676052,128.89663820899008,0.0,24.36017555861509,90.0,12343.64464571622,True,False,3.1385461010176385,10.952372444320524,0.30803918838500977,2025
18648354,"BP Gelsenkirchen , Gelsenkirchen ",DEU,petrochemical-steam-cracking,high,ok,32.796798849596215,7101803.093380451,51.539311,7.042823,18648354,1,16,810.7081156826999,1639.8399424798108,2.022725455386488,2554.3691469647683,13.43633251792441,54.029570651741665,38.72593407257674,0.0,15.303636579164923,24.868479160293465,5335692.671098057,False,False,0.0,810.7081156826999,0.14141011238098145,2025
18648353,"BASF AG , Ludwigshafen ",DEU,petrochemical-steam-cracking,high,ok,240.59816943826203,4103558.171236458,49.530256,8.422265,18648353,1,16,468.4427136114678,8434.073132426616,18.00449209126122,7452.879582432648,104.93984530588797,116.5998281176533,95.24727367334168,0.0,21.35255444431162,90.0,410355.8171236457,True,False,0.0,468.4427136114678,0.03107595443725586,2025
38469068,Ardagh Glass Gmbh Werk Bad Münder,DEU,glass,high,ok,193.6380097741476,49015.3794927924,52.192248,9.446852,38469068,5,16,5.59536295579822,133.5696322279217,23.871486672640167,101.32910035439275,135.5304603007819,150.5894003342021,126.28481895371334,0.0,24.304581380488784,90.0,4901.537949279238,True,False,1.2462852958942843,4.349077659903935,0.2423858642578125,2025
1566777,ArcelorMittal Hamburg steel plant,DEU,iron-and-steel,high,ok,106.7035568696976,4147433.967379856,53.5230882560197,9.89986227272253,1566777,4,16,473.45136613925297,5335.177843484879,11.268692467803927,7400.270260145945,72.53200265329555,95.96295047561237,70.98419128214172,0.0,24.978759193470648,75.58333950114272,1012664.8712294267,False,False,0.2559055423398974,473.1954605969131,0.7953829765319824,2025
18648352,"Basell Polyfine GMBH , Wesseling ",DEU,petrochemical-steam-cracking,high,ok,99.4097630571483,6883387.900376586,50.833333,6.966944,18648352,1,16,785.774874472213,4970.488152857415,6.325588046062148,11811.22322819367,48.27328892402197,71.57277252925928,44.6535555652419,0.0,26.919216964017373,67.44644257603355,2240787.632863451,False,False,0.0,785.774874472213,0.17838573455810547,2025
38469066,Ardagh Glass Gmbh Werk Obernkirchen,DEU,glass,high,ok,221.19483783037407,172189.40866727108,52.264368,9.140727,38469066,5,16,19.656325190327752,432.4567550659239,22.000895430785913,348.3833060140033,126.15830346684965,140.17589274094405,116.38902655697444,0.0,23.78686618396961,89.99999999999999,17218.940866727124,True,False,4.378159066631482,15.27816612369627,0.3036768436431885,2025
32438330,Beckum Cement Plant,DEU,cement,high,ok,296.3824363638415,179850.757909236,51.7587986195122,8.07279866630518,32438330,3,16,20.530908437127398,616.0723788430639,30.00706864626504,363.88417914030094,164.2770990829136,182.53011009212622,158.74324390815661,0.0,23.786866183969607,89.99999999999999,17985.07579092361,True,False,0.0,20.530908437127398,0.18875813484191895,2025
38469095,Ardagh Group,DEU,glass,high,ok,184.5344746861008,287791.4839804624,49.233083,8.374951,38469095,5,16,32.85290913018977,435.41162814155945,13.253365977914063,582.2759332749066,84.50978071008001,93.89975634453333,70.11289016056372,0.0,23.786866183969607,90.00000000000001,28779.148398046214,True,False,7.317505209180058,25.53540392100972,0.36249804496765137,2025
32438328,Beckum-Kollenbach Cement Plant,DEU,cement,high,ok,310.8360732706735,393211.2709667956,51.7654625243113,8.05631118333764,32438328,3,16,44.88713138890361,1346.9680671963251,30.007889243938283,795.5671815221142,164.28100609243583,182.5344512138176,158.74758502984795,0.0,23.78686618396961,90.00000000000001,39321.1270966795,True,False,0.0,44.88713138890361,0.15671515464782715,2025
38474135,Biess Textil-Applikationen Gmbh.,DEU,textiles-leather-apparel,high,ok,137.2426604615031,108353.35994157154,48.0302934,11.5851453,38474135,3,16,12.369105016161136,70.87271596417176,5.729817627999067,205.522644618224,47.350609973367554,52.6117888592973,30.311852450270088,0.0,22.299936409027207,89.99999999999997,10835.33599415718,True,False,11.132194514545022,1.2369105016161135,0.1231238842010498,2025
1566785,Benteler Steel Tube Lingen plant,DEU,iron-and-steel,high,ok,316.8789492838233,369593.0240262686,52.4676256350036,7.3176976407442,1566785,3,16,42.19098447788454,1150.3442816339011,27.26516804169106,765.1492144339727,151.71965062587458,168.57738958430505,144.23805509498717,0.0,24.339334489317864,90.00000000000003,36959.302402626796,True,False,0.1320573771585016,42.05892710072604,0.14039087295532227,2025
32438332,Bernburg Cement Plant,DEU,cement,high,ok,491.2412379471185,318278.96484765405,51.8166173773161,11.7379651445116,32438332,3,16,36.33321516525731,2523.2099028272955,69.44636997718962,633.6741648812992,351.7125879139873,390.7917643488747,367.3848378121154,0.0,23.40692653675934,90.00000000000001,31827.896484765362,True,False,0.0,36.33321516525731,0.11939358711242676,2025
45257234,Brunsbüttel,DEU,chemicals,high,ok,360.1162679320899,2837289.658586882,53.9140811,9.1161823,45257234,2,16,323.8915135373153,12596.58871514327,38.891382418675285,5740.564178879856,206.57687598815525,229.52986220906138,205.74299602509174,0.0,23.786866183969618,90.0,283728.965858688,True,False,0.0,323.8915135373153,0.10856509208679199,2025
38477189,Breitex Gmbh,DEU,textiles-leather-apparel,high,ok,119.04929510723112,108353.35994157154,50.74893,12.9900099,38477189,3,16,12.369105016161136,105.47205792469963,8.527056548302623,214.39521998794766,61.535190664664,68.37243407184889,45.10979174349743,0.0,23.262642328351454,90.0,10835.335994157147,True,False,11.132194514545022,1.2369105016161135,0.16680598258972168,2025
38480509,Brauerei Diebels Gmbh & Co. Kg,DEU,food-beverage-tobacco,high,ok,180.1853672819925,489819.85277749464,51.532983,6.421499,38480509,4,16,55.91550830793319,632.2407411568903,11.307073123167678,981.4386313249285,75.03592302790426,83.3732478087825,59.816621471347254,0.0,23.556626337435226,90.00000000000003,48981.985277749365,True,False,46.714732334065545,9.200775973867643,0.23291707038879395,2025
1566784,CSN Stahlwerk Thüringen Unterwellenborn steel plant,DEU,iron-and-steel,high,ok,108.72663329647574,333298.2849742928,50.6550946481609,11.4351991903788,1566784,3,16,38.04774942628914,967.6458572484852,25.432407220908818,654.5605593721858,141.86815601846723,157.63128446496358,134.54239300188365,0.0,23.088891463079932,89.99999999999999,33329.8284974293,True,False,0.11908909114584268,37.92866033514329,0.16042709350585938,2025
38480517,Brökelmann + Co Oelmühle Gmbh + Co,DEU,food-beverage-tobacco,high,ok,198.47287109669065,489819.85277749464,51.658808,7.838213,38480517,4,16,55.91550830793319,849.6845424911644,15.19586547996404,1023.4495268080142,94.45866206395253,104.95406895994728,80.38909127438943,0.0,24.564977685557842,89.99999999999999,48981.98527774955,True,False,46.714732334065545,9.200775973867643,0.2325150966644287,2025
38480540,Böklunder Fleischwarenfabrik Gmbh & Co. Kg,DEU,food-beverage-tobacco,high,ok,413.7231029218564,489819.85277749464,54.603413,9.586199,38480540,4,16,55.91550830793319,769.9947025277515,13.770682335342485,991.0311033802355,86.97281466736877,96.63646074152085,72.84959455755124,0.0,23.786866183969607,90.00000000000001,48981.98527774944,True,False,46.714732334065545,9.200775973867643,0.2302079200744629,2025
38480535,Bunge Deutschland Gmbh,DEU,food-beverage-tobacco,high,ok,236.4839868840088,489819.85277749464,49.506863,8.450283,38480535,4,16,55.91550830793319,428.8632347552694,7.669844158323123,888.4177127957507,55.709006753748234,61.8988963930536,40.57497106148633,0.0,21.323925331567267,90.0,48981.9852777495,True,False,46.714732334065545,9.200775973867643,0.29551076889038086,2025
38480554,Cargill Deutschland Gmbh,DEU,food-beverage-tobacco,high,ok,349.95716432010965,489819.85277749464,51.983315,11.875674,38480554,4,16,55.91550830793319,581.6658970766658,10.402586235528153,991.0311033802355,70.93671809680494,78.8185756631166,55.031709479147,0.0,23.78686618396961,90.0,48981.985277749474,True,False,46.714732334065545,9.200775973867643,0.2165970802307129,2025
32438316,Burglengenfeld Cement Plant,DEU,cement,high,ok,131.27117610712315,346630.9367851843,49.2131819505009,12.0300078626401,32438316,3,16,39.56974164214433,721.3080744123625,18.228778972974716,660.0689194321244,106.9392903933415,118.82143377037944,96.43379500899627,0.0,22.38763876138316,90.0,34663.09367851841,True,False,0.0,39.56974164214433,0.2675931453704834,2025
38480529,Cargill Gmbh,DEU,food-beverage-tobacco,high,ok,372.45999519855343,489819.85277749464,52.192199,10.426068,38480529,4,16,55.91550830793319,790.6323897200128,14.139769334938505,1018.6837907470857,89.32745391895509,99.25272657661674,74.80213674988873,0.0,24.45058982672801,90.00000000000003,48981.985277749365,True,False,46.714732334065545,9.200775973867643,0.20375490188598633,2025
38480508,Cargill Deutschland Gmbh,DEU,food-beverage-tobacco,high,ok,116.46024379299016,384747.6666308038,51.337549,6.661029,38480508,4,16,43.92096651036572,465.1007396478522,10.58949236779852,778.4431407219915,71.82661099115657,79.80734554572953,56.02047936175992,0.0,23.78686618396962,89.99999999999999,38474.7666630804,True,False,36.69386645089467,7.2271000594710575,0.2272336483001709,2025
38480550,Cargill Gmbh,DEU,food-beverage-tobacco,high,ok,366.9401017656079,489819.85277749464,51.30161,13.291514,38480550,4,16,55.91550830793319,612.1468067300799,10.94771066658138,987.6226942022537,73.45852297300628,81.62058108111808,57.91552400761971,0.0,23.70505707349837,90.00000000000001,48981.98527774941,True,False,46.714732334065545,9.200775973867643,0.1707909107208252,2025
38480478,Cargill Gmbh,DEU,food-beverage-tobacco,high,ok,127.1808943705083,489819.85277749464,50.027906,8.227229,38480478,4,16,55.91550830793319,564.5058864118956,10.095694441389968,956.6403585357008,68.73264612026304,76.36960680029226,53.408192050484274,0.0,22.961414749807982,90.00000000000001,48981.98527774942,True,False,46.714732334065545,9.200775973867643,0.19391727447509766,2025
38476958,Corsina Europe Gmbh,DEU,textiles-leather-apparel,high,ok,160.9333841058852,108353.35994157154,48.78689,9.93691,38476958,3,16,12.369105016161136,104.5440997953849,8.452034295027039,225.56052664388983,62.268324413171385,69.187027125746,44.71290939585273,0.0,24.47411772989327,89.99999999999999,10835.335994157163,True,False,11.132194514545022,1.2369105016161135,0.18888592720031738,2025
38480530,Cremilk Gmbh,DEU,food-beverage-tobacco,high,ok,272.9047000690095,489819.85277749464,54.655012,9.93491,38480530,4,16,55.91550830793319,778.2148748254015,13.91769293305324,990.2854123320016,87.65664955864905,97.39627728738783,73.6273092835242,0.0,23.76896800386363,90.00000000000001,48981.985277749445,True,False,46.714732334065545,9.200775973867643,0.20201396942138672,2025
38480515,Coppenrath & Wiese Gmbh & Co. Kg,DEU,food-beverage-tobacco,high,ok,262.7154497451975,489819.85277749464,52.313251,7.798942,38480515,4,16,55.91550830793319,785.3731782023854,14.045712933114087,1016.5667301020792,88.8339022994195,98.7043358882439,74.30456004514804,0.0,24.399775843095863,90.0,48981.98527774951,True,False,46.714732334065545,9.200775973867643,0.22064495086669922,2025
18648357,"Dow Chemical Co. , Bohlen ",DEU,petrochemical-steam-cracking,high,ok,347.18140093454963,3739532.8502660417,51.394126,11.974703,18648357,1,16,426.88731167420565,8905.750119701468,20.862063303718454,7563.470772652711,120.72887287811089,134.14319208678987,110.36438255563456,0.0,23.778809531155307,90.0,373953.28502660396,True,False,0.0,426.88731167420565,0.04545116424560547,2025
38477043,Deichmann Se,DEU,textiles-leather-apparel,high,ok,27.074603093366807,108353.35994157154,51.4617581,6.9281721,38477043,3,16,12.369105016161136,149.98520826530213,12.125793100578866,223.54113230558772,79.56253445608867,88.40281606232072,64.14780978563272,0.0,24.255006276688007,90.00000000000001,10835.335994157134,True,False,11.132194514545022,1.2369105016161135,0.16045784950256348,2025
1896592,Deuna Cement Plant,DEU,cement,high,ok,308.2901355746484,878234.5369620095,51.362277292066,10.4811076435298,1896592,3,16,100.25508412808327,2708.7018040913017,27.01809915825052,1672.370409856801,148.7867861605966,165.31865128955172,142.93101252816857,0.0,22.38763876138315,90.00000000000001,87823.45369620083,True,False,0.0,100.25508412808327,0.1591041088104248,2025
1896617,Dotternhausen Cement Plant,DEU,cement,high,ok,121.88112650473217,482997.115954524,48.2275715767427,8.77983697538782,1896617,3,16,55.13665707243425,771.2603380045136,13.98815922030405,969.9698445476001,87.84927818358396,97.61030909287105,74.00008968257694,0.0,23.610219410294103,90.00000000000001,48299.71159545236,True,False,0.0,55.13665707243425,0.15865278244018555,2025
32438309,Dykerhoff Geseke Cement Plant,DEU,cement,high,ok,154.64896697807495,141300.01842594118,51.6224230186466,8.50309807523907,32438309,3,16,16.13013908971931,561.1958304967385,34.79175395669227,284.6804050876326,186.9675347776986,207.74170530855397,184.05516211685045,0.0,23.6865431917035,90.00000000000001,14130.001842594093,True,False,0.0,16.13013908971931,0.08667302131652832,2025
38480531,Crespel & Deiters Gmbh & Co.Kg,DEU,food-beverage-tobacco,high,ok,285.42405247300985,489819.85277749464,52.26462,7.70549,38480531,4,16,55.91550830793319,782.5134036897437,13.994568365190416,1016.8751081950896,88.59705559703352,98.44117288559279,74.03399530867901,0.0,24.40717757691379,90.0,48981.9852777495,True,False,46.714732334065545,9.200775973867643,0.38993191719055176,2025
44375507,"Dynos GmbH, Niederlassung Bad Durkheim",DEU,pulp-and-paper,high,ok,73.38622810018788,339617.47554680926,49.4515534,8.0629732,44375507,4,16,38.76911821310608,454.41439927554813,11.72104035943565,675.4468723053342,76.85001282581567,85.38890313979519,62.00658886641476,0.0,23.38231427338043,90.0,33961.74755468092,True,False,37.946742978282614,0.8223752348234621,0.18380212783813477,2025
3673051,Essen aluminium plant,DEU,aluminum,high,ok,30.54421574301614,45794.67484428526,51.493167,6.963494,3673051,1,16,5.227702607795122,153.33024662004715,29.33033076353916,99.3486985894135,162.60178525909961,180.66865028788848,155.1631685583835,0.0,25.505481729504986,90.0,4579.467484428525,True,False,0.0,5.227702607795122,0.026599884033203125,2025
1566786,ESF Elbe Stahlwerke Feralpi Riesa plant,DEU,iron-and-steel,high,ok,370.61621029451794,242549.92081255355,51.3130887460788,13.2770101168078,1566786,3,16,27.688347124720725,709.6409604509316,25.62958912839364,490.5311649679634,143.42601206737075,159.36223563041193,135.58552373894864,0.0,23.776711891463272,90.00000000000001,24254.99208125533,True,False,0.08666426120161708,27.60168286351911,0.14946770668029785,2025
32438317,Ennigerloh Cement Plant,DEU,cement,high,ok,333.2157068139107,349050.04899274645,51.857620513076,8.03065346643537,32438317,3,16,39.84589600373818,1195.538661306086,30.00406017206704,706.2177109128814,164.26277520932464,182.5141946770274,158.7273284930578,0.0,23.786866183969618,89.99999999999999,34905.004899274674,True,False,0.0,39.84589600373818,0.17342782020568848,2025
1566788,Deutsche Edelstahlwerke steel plant,DEU,iron-and-steel,high,ok,6.382733897428145,341162.79140886344,50.9155366619083,8.01640737211641,1566788,3,16,38.9455241334319,319.13669487140726,8.194438307673245,545.2895465522237,55.927134625686335,79.98670391401266,55.79928191472005,0.0,24.18742199929262,69.9205391508683,102619.92827363395,False,False,0.12189911737707844,38.82362501605483,0.38602209091186523,2025
38473057,Emil Kiessling Gmbh,DEU,textiles-leather-apparel,high,ok,149.59251698775034,108353.35994157154,49.1763057,11.0027151,38473057,3,16,12.369105016161136,97.40985348233423,7.875254786426436,206.33093478842108,57.64434488679586,64.04927209643985,41.661633335056685,0.0,22.387638761383162,90.0,10835.335994157153,True,False,11.132194514545022,1.2369105016161135,0.20404982566833496,2025
38480552,Eipro-Vermarktung Gmbh & Co. Kg,DEU,food-beverage-tobacco,high,ok,380.04555104984127,489819.85277749464,52.659092,8.204994,38480552,4,16,55.91550830793319,720.8611143375655,12.891971049743477,1012.5905161397657,83.25484085627585,92.5053787291954,68.2010405258646,0.0,24.304338203330794,89.99999999999999,48981.98527774952,True,False,46.714732334065545,9.200775973867643,0.22289299964904785,2025
44375511,Essity Operations Mannheim GmbH,DEU,pulp-and-paper,high,ok,237.9231993137163,1611543.818471409,49.5342827,8.4594229,44375511,4,16,183.9661893232202,1731.3659639482853,9.411326996105542,2920.30229496159,63.98305905167599,71.09228783519555,49.78775482716658,0.0,21.304533008028972,89.99999999999999,161154.3818471411,True,False,177.97659246153395,5.989596861686239,0.12417197227478027,2025
38467583,"Fels-Werke Gmbh, Kalkwerk Saal",DEU,lime,high,ok,220.71029063581375,330928.1574016003,48.890591,11.934025,38467583,2,16,37.7771869179909,575.5978966269544,15.236653218157787,611.0645834755765,92.0824752874171,102.31386143046343,80.60486636221553,0.0,21.708995068247898,90.0,33092.815740160004,True,False,0.0,37.7771869179909,0.09284567832946777,2025
38467587,Fels-Werke Gmbh,DEU,lime,high,ok,139.4697419577835,191224.95322906855,52.486448,13.830047,38467587,2,16,21.829332560395954,576.4690255256077,26.40800051630856,401.74884971890754,147.96309659126135,164.40344065695706,139.70347175544197,0.0,24.699968901515103,89.99999999999999,19122.49532290687,True,False,0.0,21.829332560395954,0.1116340160369873,2025
38480542,Franz Wiltmann Gmbh & Co. Kg Westfälische Fleischwarenfabrik,DEU,food-beverage-tobacco,high,ok,222.26596778341397,489819.85277749464,52.00799,8.105025,38480542,4,16,55.91550830793319,835.3166128601766,14.938907615039305,967.4682197719118,92.02593658176875,102.25104064640972,79.0297340673687,0.0,23.221306579041045,90.0,48981.98527774948,True,False,46.714732334065545,9.200775973867643,0.162750244140625,2025
44375510,GRuNPERGA Papier GmbH,DEU,pulp-and-paper,high,ok,161.06186258115173,111287.08239831876,50.7786198,13.1594074,44375510,4,16,12.704004839990727,165.69632070847112,13.042841434291525,234.1738546952346,84.36424587647274,93.7380509738586,68.99917427678695,0.0,24.738876697071667,89.99999999999999,11128.708239831887,True,False,12.290386077758471,0.4136187622322563,0.16179990768432617,2025
38477402,Gebr. Conzelmann Gmbh & Co.Kg,DEU,textiles-leather-apparel,high,ok,79.55472344191966,108353.35994157154,48.2501075,9.0166772,38477402,3,16,12.369105016161136,84.48194337276739,6.830077298429076,217.20044676144636,53.7295140225961,59.69946002510677,36.13244063515159,0.0,23.567019389955174,90.00000000000001,10835.335994157138,True,False,11.132194514545022,1.2369105016161135,0.17146801948547363,2025
