source_id,source_name,iso3_country,lat,lon,bare_sparse_km2,cropland_km2,grassland_km2,shrubland_km2,available_land_km2,tree_cover_km2,built_up_km2,snow_ice_km2,water_km2,wetland_km2,mangroves_km2,moss_lichen_km2
38480613,Agrana Zucker Gmbh,AUT,48.243057,16.702778,,,,,,,,,,,,
38480620,Agrana Zucker Gmbh,AUT,48.32478,16.038471,,,,,,,,,,,,
32267416,Austria,AUT,47.6139487927463,14.076158884337072,,,,,,,,,,,,
38480528,Bunge Austria Gmbh,AUT,48.022446,16.754778,,,,,,,,,,,,
38469135,D.Swarovski Kg,AUT,47.29778,11.598611,,,,,,,,,,,,
38479269,Eibetex,AUT,48.81547,15.2833,,,,,,,,,,,,
32437243,Gartenau Cement Plant,AUT,47.7235279928077,13.0492860026401,,,,,,,,,,,,
38473498,Getzner Textil Ag,AUT,47.1518218,9.8236408,,,,,,,,,,,,
32437244,Gmunden Cement Plant,AUT,47.9225966590857,13.7778374280392,,,,,,,,,,,,
38477448,Gottstein Gmbh & Co.Kg (#),AUT,47.2581587,10.677482,,,,,,,,,,,,
38472832,Hefel Textil Gmbh,AUT,48.4366178,14.5399221,,,,,,,,,,,,
38479518,Heratex (#),AUT,47.4596131,13.9909218,,,,,,,,,,,,
38475947,Huber,AUT,47.4223539,13.8752059,,,,,,,,,,,,
38480512,Jungbunzlauer Austria Ag,AUT,48.721222,16.27811,,,,,,,,,,,,
32437240,Kirchdorfer Cement Plant,AUT,47.9087598061799,14.1163799202923,,,,,,,,,,,,
44375328,"Laakirchen Papier AG, Heinzel Group",AUT,47.9770957,13.8161934,0.1573054216918945,32.75745248961943,7.40161819609854,0.0,40.316376107409866,6.562645299369063,4.8008757285151455,,0.0214832851059857,,,
45257135,Linz Melamine and Fertilizers Complex,AUT,48.2895958,14.3307955,,,,,,,,,,,,
1895156,Mannersdorf Cement Plant,AUT,47.9836888240867,16.6070562287626,,,,,,,,,,,,
44375330,Mondi Neusiedler GmbH,AUT,48.0732305,14.8091594,0.2641901129760742,19.788684360148345,8.363841914476103,0.0,28.416716387600523,6.53330955236098,5.097547494252883,,0.0006015963745117188,,,
18648341,"OMV AG , Schwechat ",AUT,48.139922,16.512808,,,,,,,,,,,,
44375331,"Papierfabrik Wattens GmbH & Co KG, delfort",AUT,47.2969362,11.5903444,0.021371077758789,4.969432646170347,3.938298300587134,0.0,8.92910202451627,2.930789361051432,4.093256176462449,,0.6374737511091645,,,
32437242,Retznei Cement Plant,AUT,46.7375344612225,15.5733587435471,,,,,,,,,,,,
38469146,Saint-Gobain Isover Austria Gmbh,AUT,48.03389,16.019,,,,,,,,,,,,
38472842,Seibersdorfer Bettfedern- Und Daunenfabrik Gmbh,AUT,47.9170893,16.4255328,,,,,,,,,,,,
38469184,Stölzle-Oberglas Gmbh,AUT,47.066387,15.0775,,,,,,,,,,,,
44375329,UPM-Kymmene Steyrermuhl Austria GmbH,AUT,47.9915494,13.8000831,0.2507655522504021,32.830182358422135,6.908562875920796,0.0,39.98951078659333,7.471744542973297,4.981821705826823,,0.1356547646797928,,,
38469123,Vetropack Austria Gmbh,AUT,48.0565,14.144222,,,,,,,,,,,,
38469169,Vetropack Austria Gmbh,AUT,48.210835,15.220556,,,,,,,,,,,,
32437245,Vils Cement Plant,AUT,47.5523694919457,10.6384596501965,,,,,,,,,,,,
1566430,Voestalpine Stahl Donawitz steel plant,AUT,47.3812785393747,15.0626634798431,,,,,,,,,,,,
1566429,Voestalpine Stahl Linz steel plant,AUT,48.2800817722905,14.3312483129851,,,,,,,,,,,,
32437246,Wietersdorf Cement Plant,AUT,46.8508788768487,14.533475311296,,,,,,,,,,,,
38476726,Wolford Ag,AUT,47.4177188,9.6542278,,,,,,,,,,,,
32437239,Wopfinger Cement Plant,AUT,47.8730536970234,16.0856916114804,,,,,,,,,,,,
44375327,Ybbstaler Zellstoff GmbH,AUT,48.0250129,14.7628564,0.1450776547851562,11.971316924374335,7.948984302674776,0.0,20.065378881834267,5.2058883978709485,2.2775492534687114,,0.0616291823364257,,,
38468967,3B-Fibreglass,BEL,50.65116,5.803042,,,,,,,,,,,,
38469196,Agc Flat Glass Europe - Site De Roux  (Ex-Glaverbel Sa),BEL,50.4553,4.4004,,,,,,,,,,,,
38469213,Agc Glass Europe - Site De Moustier (Ex-Glaverbel Sa),BEL,50.4475,4.6926,,,,,,,,,,,,
38469239,Agc Glass Europe Vestiging Mol,BEL,51.18836,5.155452,,,,,,,,,,,,
38480249,Alpro,BEL,50.809956,3.211288,,,,,,,,,,,,
32437251,Antoing Cement Plant,BEL,50.5765558254982,3.44408026408596,,,,,,,,,,,,
45257032,Antwerp Chemical Complex,BEL,51.3591321,4.2694988,,,,,,,,,,,,
1566442,Aperam Stainless Belgium Châtelet steel plant,BEL,50.414955940121,4.53186650417152,,,,,,,,,,,,
1566441,Aperam Stainless Belgium Genk steel plant,BEL,50.9330895511162,5.51202361169479,,,,,,,,,,,,
1566440,ArcelorMittal Gent steel plant,BEL,51.1710954920418,3.80755559465241,,,,,,,,,,,,
38471296,Avs Spinning Nv,BEL,50.7223824,3.3315012,,,,,,,,,,,,
18648342,"BASF Antwerpen, NV Antwerp ",BEL,51.358825,4.262207,,,,,,,,,,,,
33999004,BEL-Antwerpen_ammonia,BEL,51.2319382905994,4.72070443222579,,,,,,,,,,,,
33998943,BEL-Hainaut_ammonia,BEL,50.4636955021351,3.97003361295229,,,,,,,,,,,,
38470810,Belimtex Bvba,BEL,50.9068366,3.4059296,,,,,,,,,,,,
38480772,Beneo - Orafti,BEL,50.7245,5.3524,,,,,,,,,,,,
38480213,Boortmalt,BEL,51.275116,4.355684,,,,,,,,,,,,
44375332,Burgo Ardennes S.A.,BEL,49.5518274,5.5054045,0.0023381685791015,4.125021910921702,9.138101006959682,0.0,13.265461086460485,5.171712835800113,2.307906110896571,,0.0087749861895392,0.0,,
38480849,Cargill,BEL,51.135671,3.784262,,,,,,,,,,,,
38480835,Cargill,BEL,51.280546,4.341369,,,,,,,,,,,,
38480248,Citrique Belge,BEL,50.80137,4.961948,,,,,,,,,,,,
38480243,Cl Warneton Sa,BEL,50.7424,2.9349,,,,,,,,,,,,
38480247,Coca-Cola European Partners Belgium,BEL,51.157,4.3745,,,,,,,,,,,,
38474256,Cousy Bvba,BEL,50.8802686,3.8167968,,,,,,,,,,,,
38480245,Deliva,BEL,50.916733,5.491459,,,,,,,,,,,,
38479106,Devan Chemicals,BEL,50.7516001,3.6437709,,,,,,,,,,,,
38469208,Durobor Glassware Sa,BEL,50.5686,4.0751,,,,,,,,,,,,
38469187,Emgo,BEL,51.214036,5.290523,,,,,,,,,,,,
38480211,Exportslachthuis Tielt,BEL,51.00576,3.31441,,,,,,,,,,,,
38480215,Friesland Foods Belgie/Belgique,BEL,51.10239,4.244851,,,,,,,,,,,,
1895170,Gaurain Cement Plant,BEL,50.6033470668449,3.49006699801599,,,,,,,,,,,,
38469225,Gerresheimer Momignies Sa,BEL,50.0269,4.1517,,,,,,,,,,,,
38471111,Groep Masureel Veredeling Nv,BEL,50.8118808,3.2196556,,,,,,,,,,,,
38480214,Inex,BEL,50.942036,3.866163,,,,,,,,,,,,
38471018,Interspinning Nv,BEL,51.08813019999999,3.6767186,,,,,,,,,,,,
38480628,Isera And Scaldis Sugar,BEL,51.172178,3.925505,,,,,,,,,,,,
38468968,Knauf Insulation,BEL,50.748352,5.701382,,,,,,,,,,,,
38480844,Konings Juices And Drinks,BEL,50.801774,5.292077,,,,,,,,,,,,
38480210,Kraft Foods Belgium Production,BEL,51.17418,4.82904,,,,,,,,,,,,
38472870,Lampe Textiles,BEL,51.0043056,3.35593,,,,,,,,,,,,
38480212,Leaf België Production Nv,BEL,51.299,4.939429,,,,,,,,,,,,
38467373,Lhoist Industrie Sa - Site De On,BEL,50.1649,5.268,,,,,,,,,,,,
38476375,Libeco Lagae Nv.,BEL,50.9567532,3.297014,,,,,,,,,,,,
32437252,Lixhe Cement Plant,BEL,50.7655332494607,5.67383641398411,,,,,,,,,,,,
38480241,Manshoven Vers,BEL,50.88159,5.296548,,,,,,,,,,,,
38480638,Mars Belgium,BEL,51.145015,4.870171,,,,,,,,,,,,
38472835,Mcthree Carpets,BEL,50.8619452,3.420825,,,,,,,,,,,,
32437253,Obourg Cement Plant,BEL,50.4726674421383,3.99262683078541,,,,,,,,,,,,
38480867,Olympia,BEL,50.742309,4.08667,,,,,,,,,,,,
38480873,Pb Leiner Vilvoorde,BEL,50.938433,4.418274,,,,,,,,,,,,
38480637,Raffinerie Tirlemontoise Sa - Site De Brugelette,BEL,50.5938,3.8574,,,,,,,,,,,,
38480647,Raffinerie Tirlemontoise Sa - Site De Hollogne,BEL,50.6744,5.2136,,,,,,,,,,,,
38480784,Raffinerie Tirlemontoise Sa - Site De Wanze,BEL,50.5286,5.2072,,,,,,,,,,,,
38469190,Saint-Gobain Glass Sa,BEL,50.4499,4.6163,,,,,,,,,,,,
38468966,Saverglass Md Verre,BEL,50.4816,3.8833,,,,,,,,,,,,
38480217,Schildermans Pluimveeslachterij,BEL,51.141735,5.562029,,,,,,,,,,,,
38480650,Slachthuis Genk,BEL,50.966324,5.484406,,,,,,,,,,,,
38480218,Slachthuis Heist Op Den Berg,BEL,51.070156,4.699204,,,,,,,,,,,,
38480251,Slachthuis Heyst,BEL,51.069556,4.700937,,,,,,,,,,,,
38480209,Slachthuis Sint Truiden,BEL,50.82002,5.19318,,,,,,,,,,,,
38480242,Tecoma,BEL,51.273685,4.358077,,,,,,,,,,,,
38480863,Tereos Starch & Sweeteners Belgium,BEL,50.937207,4.045239,,,,,,,,,,,,
1566443,Thy Marcinelle Charleroi steel plant,BEL,50.4098301921851,4.4305388035139,,,,,,,,,,,,
38480880,Tiense Suikerraffinaderij,BEL,50.794086,4.936095,,,,,,,,,,,,
18648343,"TotalEnergies Fina Antwerp Olefin, Antwerp",BEL,51.254801,4.332047,,,,,,,,,,,,
38480938,Trotec,BEL,51.062185,2.672423,,,,,,,,,,,,
3673515,UMICORE - HOBOKEN,BEL,51.1677,4.3348,,,,,,,,,,,,
38469278,Ursa Benelux,BEL,50.890745,3.360928,,,,,,,,,,,,
38474877,Utexbel,BEL,50.7477392,3.5862308,,,,,,,,,,,,
38480208,Vaco Olen,BEL,51.14898,4.899779,,,,,,,,,,,,
38480244,Vacos Kitchen Herselt,BEL,51.06432,4.891171,,,,,,,,,,,,
38480250,Vandamme Oliefabriek,BEL,50.974694,3.505533,,,,,,,,,,,,
38480898,Vandamme Oliefabriek,BEL,50.975382,3.504083,,,,,,,,,,,,
38480216,Vleeswarenbedrijf Bruynkens,BEL,51.1495,4.901222,,,,,,,,,,,,
38480246,Westvlees,BEL,50.930496,3.006087,,,,,,,,,,,,
38468973,"""Rubin"" Ad",BGR,43.439636,24.567545,,,,,,,,,,,,
38473721,Abotis Ltd,BGR,41.8859984,23.4628413,,,,,,,,,,,,
38478594,Almina Jsc.,BGR,43.8178375,23.2383326,,,,,,,,,,,,
38480259,Amilum Bg Ead,BGR,43.5692,26.5279,,,,,,,,,,,,
38479157,Arda Ltd.,BGR,43.8403431,25.9489572,,,,,,,,,,,,
38478768,B.E.G.S Fashion Pltd (Site 2),BGR,42.0208569,23.0943385,,,,,,,,,,,,
38478754,Bames Eood,BGR,41.7620296,25.347511,,,,,,,,,,,,
38475172,Begs  Fashion Pltd,BGR,41.5678434,23.2803538,,,,,,,,,,,,
32437258,Beli Izvor Cement Plant,BGR,43.2820181525008,23.4653676582166,,,,,,,,,,,,
38468969,Bi Ei Glas Bg Glass Manufacturing Company,BGR,42.169785,24.739872,,,,,,,,,,,,
38468970,Bi Ei Glass Bg Glass Manufacturing Company,BGR,42.733334,23.316668,,,,,,,,,,,,
38470863,Bulstar Ltd,BGR,41.4013466,23.2402739,,,,,,,,,,,,
38475230,Burov I Sie Ood,BGR,41.3641223,23.0707337,,,,,,,,,,,,
38477240,D.San Eood,BGR,41.5503364,23.2642621,,,,,,,,,,,,
38479037,Darvodelnitsa Eood,BGR,41.5728211,23.7282719,,,,,,,,,,,,
38479093,Designer Concepts Eood,BGR,42.6270424,23.4466431,,,,,,,,,,,,
32437257,Devnya Cement Plant,BGR,43.2344758161164,27.5948982801824,,,,,,,,,,,,
38479114,Dexa Group Ltd,BGR,43.5870818,27.8348966,,,,,,,,,,,,
45257068,Dimitrovgrad Fertilizer Complex,BGR,42.0514348,25.6174539,,,,,,,,,,,,
38475511,Diss-3 Eood,BGR,41.5546421,23.2647575,,,,,,,,,,,,
38475621,E Miroglio Ead Spinning And Dyeing Yambol,BGR,42.4841999,26.5035023,,,,,,,,,,,,
38469517,E.Miroglio Ead,BGR,42.660231,26.3334882,,,,,,,,,,,,
38475612,Elena Fashion Ltd,BGR,42.6742395,23.3007492,,,,,,,,,,,,
38479162,Elit Jsc.,BGR,43.2388431,25.2994166,,,,,,,,,,,,
38479234,Et Boris-Burov 2878,BGR,41.39810809999999,23.2066849,,,,,,,,,,,,
38479237,Et Vasti 2 -Rosen Mitov,BGR,41.5635838,23.2802706,,,,,,,,,,,,
38479333,Fashco Fashion Service Company Ltd,BGR,43.4599598,25.7391449,,,,,,,,,,,,
38470276,Fashion Mania,BGR,43.4180995,24.628739,,,,,,,,,,,,
38479419,Feshko Fashion Services Company Ood,BGR,42.8799008,27.8811178,,,,,,,,,,,,
38474505,Geana Ltd.,BGR,43.7979981,25.9053209,,,,,,,,,,,,
38477463,Greek Style,BGR,41.5678434,23.2803538,,,,,,,,,,,,
38472264,Hrisa Tekstil,BGR,41.4214375,23.2143125,,,,,,,,,,,,
38479722,Izi Company Ltd,BGR,43.7666556,25.9648501,,,,,,,,,,,,
38471178,Kalinel Ltd.,BGR,42.8710995,24.7279875,,,,,,,,,,,,
38480258,Karlsberg Bg Brewery,BGR,42.004527,23.092694,,,,,,,,,,,,
40691242,"Lukoil Neftohim Burgas, Burgas",BGR,42.5403,27.32689,,,,,,,,,,,,
38480055,Manchevi Eood,BGR,42.0774024,26.6532307,,,,,,,,,,,,
38480171,Modelo Ltd.,BGR,41.5196569,23.7960616,,,,,,,,,,,,
38477988,Nova Linia,BGR,43.7979981,25.9053209,,,,,,,,,,,,
38468974,Rubin Invest Ad,BGR,43.439722,24.565694,,,,,,,,,,,,
38468975,Rubin Traiding Glass Manufacturing Company,BGR,43.440028,24.564889,,,,,,,,,,,,
38476354,S&P Textile Eood,BGR,41.5503364,23.2642621,,,,,,,,,,,,
38478005,Saime Stil Eood,BGR,41.5718061,23.9467592,,,,,,,,,,,,
45257185,Solvay Sodi Devnya Soda Ash Plant,BGR,43.199671,27.64172,,,,,,,,,,,,
44375334,Stambolijski Kraft Pulp & Paper Mill,BGR,42.1340315,24.5212027,0.0666896275634765,34.56116137473152,8.218726692457011,0.0246627464599609,42.87124044121197,2.1619428540773877,7.669397834555473,,0.0100053310546875,0.002000458984375,,
38478238,Stohi Ltd,BGR,42.01563429999999,23.0961769,,,,,,,,,,,,
1566444,Stomana Industry Pernik steel plant,BGR,42.5926210644345,23.1034276804564,,,,,,,,,,,,
44375333,"Svilocell EAD, Subsidiary of Svilosa AD",BGR,43.618351,25.3506224,0.0501449024047851,12.562766185030844,7.899213320294072,0.0188946504516601,20.53101905818136,9.78339740544171,6.267522888134529,,7.208217273919797,0.2096770883789062,,
44375335,Svistov Pulp Plant,BGR,43.63592,25.30431,0.04037355078125,10.486043403795437,4.7090052056535345,0.0149847733154296,15.250406933545651,5.6763289578756915,3.779122201979213,,4.093377367479751,0.1094825134054744,,
38468972,Trakia Glass Bg Glass Manufacturing Company,BGR,43.275276,26.519583,,,,,,,,,,,,
38478477,Ubi-2 Eood,BGR,41.5289091,23.9853567,,,,,,,,,,,,
32437259,Zlatna Panega Cement Plant,BGR,43.0879288257691,24.1750943535129,,,,,,,,,,,,
32438303,Vassiliko Cement Plant,CYP,34.7235696842141,33.3162181445185,,,,,,,,,,,,
38476920,Ace Sport S.R.O.,CZE,49.3136152,14.1591341,,,,,,,,,,,,
38480307,Adm Olomouc S.R.O.,CZE,49.584855,17.309113,,,,,,,,,,,,
38480347,Agricol S.R.O.,CZE,49.719244,16.26695,,,,,,,,,,,,
38480303,Agrodružstvo Jevišovice - Středisko Jevišovice,CZE,48.977221,15.994444,,,,,,,,,,,,
38476979,Alena Cendelinova,CZE,49.3434598,14.1505469,,,,,,,,,,,,
38472848,Amreiters S.R.O.,CZE,50.2126762,12.2008194,,,,,,,,,,,,
44375503,Biocel Paskov a.s.,CZE,49.717969,18.2946046,0.1499536457565008,19.70819600685696,11.576893104628622,0.0,31.43504275724208,18.13324773817403,6.341887725901163,,0.356143962247482,0.0069899874877929,,
33998934,CZE-Most_ammonia,CZE,50.5521841185891,13.6253630022868,,,,,,,,,,,,
32438307,Cizkovice Cement Plant,CZE,50.4892392146656,14.0442571348417,,,,,,,,,,,,
38468985,"Crystal Bohemia, A.S. - Poděbrady",CZE,50.145048,15.127301,,,,,,,,,,,,
38468981,Crystalite Bohemia S.R.O. - Světlá Nad Sázavou,CZE,49.665921,15.418838,,,,,,,,,,,,
38480340,Cukrovar Dobrovice,CZE,50.368128,14.964525,,,,,,,,,,,,
38480312,Cukrovar Vrbátky A.S.,CZE,49.506128,17.203389,,,,,,,,,,,,
38480282,Cukrovar České Meziříčí,CZE,50.28568,16.051022,,,,,,,,,,,,
38480345,Drůbežářský Závod Klatovy A. S.,CZE,49.383049,13.298954,,,,,,,,,,,,
38480309,Farma Nevojice,CZE,49.140153,17.038325,,,,,,,,,,,,
1566770,GFG Liberty Ostrava steel plant,CZE,49.7928436973819,18.3216516834452,,,,,,,,,,,,
38468986,Glazura S.R.O.,CZE,50.43209,14.291716,,,,,,,,,,,,
38480302,Glencore Agriculture Czech S.R.O.,CZE,50.653985,14.052872,,,,,,,,,,,,
38477504,Gufex S.R.O.,CZE,49.3877335,17.8812314,,,,,,,,,,,,
38480342,Hamé S.R.O.,CZE,49.120379,17.468818,,,,,,,,,,,,
32438304,Hranice Cement Plant,CZE,49.5605172797816,17.7649229827291,,,,,,,,,,,,
38474175,Intimidea  Sro,CZE,49.4052328,15.5881164,,,,,,,,,,,,
38480341,"Jacom, Spol. S R.O.",CZE,49.336545,17.570149,,,,,,,,,,,,
38468984,"Kavalierglass, A.S. Provozovna Sázava",CZE,49.877138,14.908714,,,,,,,,,,,,
38468987,"Knauf Insulation, Spol. S R.O.",CZE,50.669381,13.886511,,,,,,,,,,,,
38480344,"Litovelská Cukrovarna, A.S.",CZE,49.709594,17.07195,,,,,,,,,,,,
32438306,Mokra Cement Plant,CZE,49.2136957209378,16.7741774818981,,,,,,,,,,,,
38480305,"Moravskoslezské Cukrovary, A.S.  Závod Hrušovany",CZE,48.811221,16.404268,,,,,,,,,,,,
38480301,"Moravskoslezské Cukrovary, A.S. O.Z. Opava",CZE,49.959094,17.869164,,,,,,,,,,,,
38468982,"O-I Manufacturing Czech Republic, A.S., Závod Nové Sedlo",CZE,50.211693,12.739065,,,,,,,,,,,,
38468991,"O-I Manufacturing Czech Republic, A.S., Závod Rudolfova Huť",CZE,50.664721,13.798055,,,,,,,,,,,,
44375502,"OP Papírna s.r.o., delfort",CZE,49.9596659,16.8653919,0.0058017028559666,9.528037253147977,7.009416886319268,0.0,16.543255842323212,5.78832615630529,1.9272711945176069,,0.0330417616577148,,,
38480346,"Olma, A.S.",CZE,49.585803,17.298728,,,,,,,,,,,,
38480311,Pepsico Cz S.R.O. Praha,CZE,50.109525,14.520942,,,,,,,,,,,,
38475103,Personna International Cz S.R.O.,CZE,50.6604737,13.8790054,,,,,,,,,,,,
38480339,Pivovar Plzeň,CZE,49.746885,13.386982,,,,,,,,,,,,
32438305,Prachovice Cement Plant,CZE,49.8954278608157,15.639196089567,,,,,,,,,,,,
38480304,Procházka Spol. S R. O.,CZE,50.428069,14.285056,,,,,,,,,,,,
38480314,"Raciola Uherský Brod, S.R.O.",CZE,49.023144,17.640751,,,,,,,,,,,,
42546160,Radotin Cement Plant,CZE,49.9956970504138,14.3393698755715,,,,,,,,,,,,
38468979,Saint-Gobain Adfors Cz S.R.O. - Závod 1 Litomyšl,CZE,49.87975,16.289931,,,,,,,,,,,,
38480306,Skaličan A.S.,CZE,50.385798,16.037955,,,,,,,,,,,,
38480310,Středisko Opatovec,CZE,49.803336,16.473611,,,,,,,,,,,,
32440699,TZMS Třinecké železárny Trinec steel plant,CZE,49.6902275497972,18.6496641755199,,,,,,,,,,,,
18648344,"Unipetrol, Litvinov",CZE,50.568272,13.60227,,,,,,,,,,,,
38468978,Vetropack Moravia Glass Akciová Společnost,CZE,49.003155,17.126594,,,,,,,,,,,,
38468990,Vitrablok - Závod Duchcov,CZE,50.598579,13.748213,,,,,,,,,,,,
38468989,Závod Barevka,CZE,50.659444,13.799166,,,,,,,,,,,,
38468993,Závod Desná A Polubný,CZE,50.759593,15.314853,,,,,,,,,,,,
38467374,Závod Mokrá,CZE,49.215443,16.774047,,,,,,,,,,,,
38468983,Závod Příchovice,CZE,50.761503,15.325526,,,,,,,,,,,,
38480343,Závod Vodňany,CZE,49.141484,14.191872,,,,,,,,,,,,
38468988,"Závod Řetenice, Coating, Vedení Společnosti",CZE,50.640535,13.801103,,,,,,,,,,,,
38480308,"Žerotín, A.S.",CZE,48.889306,17.304864,,,,,,,,,,,,
1566773,AG der Dillinger Hüttenwerke Dillingen steel plant,DEU,49.3530201103469,6.74528835249818,,,,,,,,,,,,
38480521,Adm  Mainz Gmbh,DEU,49.973827,8.317314,,,,,,,,,,,,
38480538,Adm Spyck Gmbh,DEU,51.834743,6.172017,,,,,,,,,,,,
38480536,Adm Spyck Gmbh Werk Straubing,DEU,48.901901,12.659658,,,,,,,,,,,,
38478624,Adolf Sauter Gmbh & Co. Kg,DEU,48.6955454,9.7028718,,,,,,,,,,,,
38469134,Agc F Glass Gmbh,DEU,52.063711,11.555506,,,,,,,,,,,,
32438333,Allmendingen Cement Plant,DEU,48.3331703219914,9.73330639152596,,,,,,,,,,,,
3673194,Aluminium Norf GmbH,DEU,51.1532625664273,6.7845260829157,,,,,,,,,,,,
43765081,Aluminium Oxid Stade GmbH (AOS) Alumina Refinery,DEU,53.65281,9.493854,,,,,,,,,,,,
32438312,Amoneburg Cement Plant,DEU,50.0322556711509,8.25738561028843,,,,,,,,,,,,
1566776,ArcelorMittal Bremen steel plant,DEU,53.1312378958179,8.68913865827406,,,,,,,,,,,,
1566778,ArcelorMittal Duisburg steel plant,DEU,51.462419615216,6.74314200082803,,,,,,,,,,,,
1566775,ArcelorMittal Eisenhüttenstadt steel plant,DEU,52.1669738304436,14.6254069840339,,,,,,,,,,,,
1566777,ArcelorMittal Hamburg steel plant,DEU,53.5230882560197,9.89986227272253,,,,,,,,,,,,
38469064,Ardagh Glass Gmbh,DEU,52.660305,9.214709,,,,,,,,,,,,
38469092,Ardagh Glass Gmbh,DEU,51.626076,7.512943,,,,,,,,,,,,
38469113,Ardagh Glass Gmbh,DEU,53.946107,10.194237,,,,,,,,,,,,
38469050,Ardagh Glass Gmbh,DEU,52.536864,13.713597,,,,,,,,,,,,
38469051,Ardagh Glass Gmbh,DEU,51.649411,14.2294,,,,,,,,,,,,
38469068,Ardagh Glass Gmbh Werk Bad Münder,DEU,52.192248,9.446852,,,,,,,,,,,,
38469066,Ardagh Glass Gmbh Werk Obernkirchen,DEU,52.264368,9.140727,,,,,,,,,,,,
38469095,Ardagh Group,DEU,49.233083,8.374951,,,,,,,,,,,,
3673201,Aurubis AG,DEU,53.5216322071928,10.0332724732957,,,,,,,,,,,,
3673202,Aurubis AG,DEU,51.6040261582496,7.50788747844793,,,,,,,,,,,,
18648353,"BASF AG , Ludwigshafen ",DEU,49.530256,8.422265,,,,,,,,,,,,
18648354,"BP Gelsenkirchen , Gelsenkirchen ",DEU,51.539311,7.042823,,,,,,,,,,,,
18648352,"Basell Polyfine GMBH , Wesseling ",DEU,50.833333,6.966944,,,,,,,,,,,,
32438330,Beckum Cement Plant,DEU,51.7587986195122,8.07279866630518,,,,,,,,,,,,
32438328,Beckum-Kollenbach Cement Plant,DEU,51.7654625243113,8.05631118333764,,,,,,,,,,,,
1566785,Benteler Steel Tube Lingen plant,DEU,52.4676256350036,7.3176976407442,,,,,,,,,,,,
32438332,Bernburg Cement Plant,DEU,51.8166173773161,11.7379651445116,,,,,,,,,,,,
38474135,Biess Textil-Applikationen Gmbh.,DEU,48.0302934,11.5851453,,,,,,,,,,,,
38480509,Brauerei Diebels Gmbh & Co. Kg,DEU,51.532983,6.421499,,,,,,,,,,,,
38477189,Breitex Gmbh,DEU,50.74893,12.9900099,,,,,,,,,,,,
45257234,Brunsbüttel,DEU,53.9140811,9.1161823,,,,,,,,,,,,
38480517,Brökelmann + Co Oelmühle Gmbh + Co,DEU,51.658808,7.838213,,,,,,,,,,,,
38480535,Bunge Deutschland Gmbh,DEU,49.506863,8.450283,,,,,,,,,,,,
32438316,Burglengenfeld Cement Plant,DEU,49.2131819505009,12.0300078626401,,,,,,,,,,,,
38480540,Böklunder Fleischwarenfabrik Gmbh & Co. Kg,DEU,54.603413,9.586199,,,,,,,,,,,,
1566784,CSN Stahlwerk Thüringen Unterwellenborn steel plant,DEU,50.6550946481609,11.4351991903788,,,,,,,,,,,,
38480554,Cargill Deutschland Gmbh,DEU,51.983315,11.875674,,,,,,,,,,,,
38480508,Cargill Deutschland Gmbh,DEU,51.337549,6.661029,,,,,,,,,,,,
38480529,Cargill Gmbh,DEU,52.192199,10.426068,,,,,,,,,,,,
38480550,Cargill Gmbh,DEU,51.30161,13.291514,,,,,,,,,,,,
38480478,Cargill Gmbh,DEU,50.027906,8.227229,,,,,,,,,,,,
38480515,Coppenrath & Wiese Gmbh & Co. Kg,DEU,52.313251,7.798942,,,,,,,,,,,,
38476958,Corsina Europe Gmbh,DEU,48.78689,9.93691,,,,,,,,,,,,
38480530,Cremilk Gmbh,DEU,54.655012,9.93491,,,,,,,,,,,,
38480531,Crespel & Deiters Gmbh & Co.Kg,DEU,52.26462,7.70549,,,,,,,,,,,,
38477043,Deichmann Se,DEU,51.4617581,6.9281721,,,,,,,,,,,,
1896592,Deuna Cement Plant,DEU,51.362277292066,10.4811076435298,,,,,,,,,,,,
1566788,Deutsche Edelstahlwerke steel plant,DEU,50.9155366619083,8.01640737211641,,,,,,,,,,,,
1896617,Dotternhausen Cement Plant,DEU,48.2275715767427,8.77983697538782,,,,,,,,,,,,
18648357,"Dow Chemical Co. , Bohlen ",DEU,51.394126,11.974703,,,,,,,,,,,,
32438309,Dykerhoff Geseke Cement Plant,DEU,51.6224230186466,8.50309807523907,,,,,,,,,,,,
44375507,"Dynos GmbH, Niederlassung Bad Durkheim",DEU,49.4515534,8.0629732,0.0,0.0,0.0,0.0,0.0,0.0,0.0,,0.0,,,
1566786,ESF Elbe Stahlwerke Feralpi Riesa plant,DEU,51.3130887460788,13.2770101168078,,,,,,,,,,,,
38480552,Eipro-Vermarktung Gmbh & Co. Kg,DEU,52.659092,8.204994,,,,,,,,,,,,
38473057,Emil Kiessling Gmbh,DEU,49.1763057,11.0027151,,,,,,,,,,,,
32438317,Ennigerloh Cement Plant,DEU,51.857620513076,8.03065346643537,,,,,,,,,,,,
3673051,Essen aluminium plant,DEU,51.493167,6.963494,,,,,,,,,,,,
44375511,Essity Operations Mannheim GmbH,DEU,49.5342827,8.4594229,0.0309994011230468,2.5386317643186107,3.7137934409545896,0.0,6.283424606396247,7.146092773694326,26.65534066134105,,2.5581935088398056,,,
38469119,Euroglas Ag,DEU,52.057558,11.58079,,,,,,,,,,,,
38469121,Euroglas Gmbh,DEU,52.274411,11.440182,,,,,,,,,,,,
38467587,Fels-Werke Gmbh,DEU,52.486448,13.830047,,,,,,,,,,,,
38467583,"Fels-Werke Gmbh, Kalkwerk Saal",DEU,48.890591,11.934025,,,,,,,,,,,,
38480542,Franz Wiltmann Gmbh & Co. Kg Westfälische Fleischwarenfabrik,DEU,52.00799,8.105025,,,,,,,,,,,,
44375510,GRuNPERGA Papier GmbH,DEU,50.7786198,13.1594074,0.0302011365356445,6.77080189198788,4.484814380093207,0.0,11.285817408616731,6.140250513338932,1.027685055174106,,0.0142524920654296,,,
38477402,Gebr. Conzelmann Gmbh & Co.Kg,DEU,48.2501075,9.0166772,,,,,,,,,,,,
42741860,Georgsmarienhütte Osnabrück steel plant,DEU,52.2094721461794,8.04644859003109,,,,,,,,,,,,
32267402,Germany,DEU,51.13372269040778,10.288485092742851,,,,,,,,,,,,
38469111,Gerresheimer Essen Gmbh,DEU,51.438605,7.088215,,,,,,,,,,,,
38469060,Gerresheimer Lohr Gmbh,DEU,49.983952,9.578945,,,,,,,,,,,,
38469150,Gerresheimer Tettau Gmbh,DEU,50.457747,11.264414,,,,,,,,,,,,
38480532,Gilde Brauerei Gmbh,DEU,52.354796,9.753487,,,,,,,,,,,,
38469062,Glasfaserherstellungsanlage - Saint-Gobain Isover G+H Ag Werk Lübz,DEU,53.475238,12.024809,,,,,,,,,,,,
38469106,Glaswerk Ernstthal Gmbh,DEU,50.489944,11.172166,,,,,,,,,,,,
38480543,Glencore Magdeburg Gmbh,DEU,52.194041,11.682746,,,,,,,,,,,,
38469128,Gmb Glasmanufaktur Brandenburg Gmbh,DEU,51.57587,14.604819,,,,,,,,,,,,
1896594,Gollheim Cement Plant,DEU,49.601992483041,8.0370452916598,,,,,,,,,,,,
38469100,Guardian Flachglas Gmbh,DEU,51.651228,12.24341,,,,,,,,,,,,
38474564,Guetermann Gmbh,DEU,48.11277,7.98325,,,,,,,,,,,,
38480549,H. & J. Brüggen Kg,DEU,53.880086,10.692115,,,,,,,,,,,,
38480539,Hage Produktions Ag,DEU,54.294693,9.677788,,,,,,,,,,,,
3673050,Hamburg aluminium plant,DEU,53.512134,9.892576,,,,,,,,,,,,
1896608,Hannover Cement Plant,DEU,52.3749507578749,9.877094633034,,,,,,,,,,,,
38477569,Hanskruchen Gmbh,DEU,51.165691,10.451526,,,,,,,,,,,,
32438329,Harburg Cement Plant,DEU,48.7767109030793,10.6987005636817,,,,,,,,,,,,
32438323,Heidelberg Geseke Cement Plant,DEU,51.6186036741443,8.51081586438816,,,,,,,,,,,,
44375506,Heinrich Schaller Pappenfabrik e.K.,DEU,50.0210149,12.0200894,0.0156242749633789,4.828097787924137,2.7781489484590427,0.0,7.621871011346559,3.006491208691166,3.4447050270756736,,0.0248888308105468,,,
38469103,Heraeus Quarzglas Gmbh & Co. Kg,DEU,51.638193,12.302419,,,,,,,,,,,,
38477601,Hirsch Natur Gmbh,DEU,52.05880459999999,7.3622936,,,,,,,,,,,,
1896619,Hover Cement Plant,DEU,52.3529880409205,9.88824496974665,,,,,,,,,,,,
3673372,Hydro Aluminium Rolled Products GmbH Rheinwerk,DEU,51.1536852558066,6.7835762834351,,,,,,,,,,,,
1566772,Hüttenwerke Krupp Mannesmann (HKM) steel plant,DEU,51.3688861770941,6.71444217243744,,,,,,,,,,,,
18648355,"INEOS , Dormagen ",DEU,51.06716,6.84594,,,,,,,,,,,,
45257233,INEOS Nitriles Cologne,DEU,51.0723534866003,6.85601303697041,,,,,,,,,,,,
38477730,In-Fashion Herrenbekleidung Gmbh,DEU,49.71224,9.21248,,,,,,,,,,,,
38476273,Kaiser Bekleidungs-Gmbh,DEU,49.71224,9.21248,,,,,,,,,,,,
38467588,Kalkwerke H. Oetelshofen Gmbh & Co. Kg,DEU,51.248149,7.041902,,,,,,,,,,,,
38480477,"Kampffmeyer Mühlen Gmbh, Werk Ellmühle",DEU,50.925589,6.977555,,,,,,,,,,,,
38480475,Karlsberg Brauerei Gmbh .,DEU,49.3245,7.346041,,,,,,,,,,,,
32438335,Karlstadt Cement Plant,DEU,49.95398520895,9.77093568618336,,,,,,,,,,,,
1896600,Karsdorf Cement Plant,DEU,51.2696298176477,11.6611740785651,,,,,,,,,,,,
44375515,Katz GmbH & Co. KG,DEU,48.7236271,8.3557998,0.0017815802001953,0.0017812370605468,0.0848716076861213,0.0,0.0884344249468634,0.923779395468558,0.5140039176405963,,0.0,,,
1566779,Kehler Baden Steel Works,DEU,48.5982814201553,7.82205624647558,,,,,,,,,,,,
38480476,Kellogg (Deutschland) Gmbh,DEU,53.08486,8.77745,,,,,,,,,,,,
18648359,"Klesch, Heide",DEU,54.157278,9.074751,,,,,,,,,,,,
38469126,Knauf Insulation Gmbh,DEU,51.803471,11.700335,,,,,,,,,,,,
38480058,Kospro Gmbh,DEU,52.3249878,10.4655139,,,,,,,,,,,,
38472869,Krass + Wissing Gmbh,DEU,52.09181,7.41772,,,,,,,,,,,,
38469149,Kristall-Glasfabrik Amberg Gmbh,DEU,49.427546,11.885778,,,,,,,,,,,,
1896618,Lagerdorf Cement Plant,DEU,53.8757165922915,9.58237351872246,,,,,,,,,,,,
1566787,Lech Stahlwerke Meitingen steel plant,DEU,48.5117415819926,10.8556303301455,,,,,,,,,,,,
38469061,Ledvance Gmbh,DEU,48.364566,10.929339,,,,,,,,,,,,
32438311,Lengerich Cement Plant,DEU,52.1749274076963,7.88841102506045,,,,,,,,,,,,
32438322,Lengfurt Cement Plant,DEU,49.8079240372208,9.61927607035703,,,,,,,,,,,,
44375508,"Lenk Paper GmbH, Papierfabrik Schleipen",DEU,49.4648466,8.109916,0.0,0.0255173519689223,0.1213382292164522,0.0,0.1468555811853745,0.0943507510167738,0.4938608817430683,,0.0,,,
38480553,Louis Dreyfus Company  Wittenberg Gmbh,DEU,51.871127,12.576919,,,,,,,,,,,,
38480546,Lubmin Oils Gmbh,DEU,54.138798,13.658644,,,,,,,,,,,,
45257230,Ludwigshafen,DEU,49.551684416784,8.40087390938092,,,,,,,,,,,,
45257231,Ludwigshafen,DEU,49.551684416784,8.40087390938092,,,,,,,,,,,,
38480526,"Lutz Fleischwaren Gmbh, Standort Weimar",DEU,50.956663,11.235927,,,,,,,,,,,,
18648356,"LyondellBasell , Munchsmunster ",DEU,48.755386,11.704528,,,,,,,,,,,,
44375512,"Mercer Rosenthal GmbH - MR, Mercer International Group",DEU,50.4034989,11.7007465,0.0011495335693359,5.636398940999347,2.8652465176985196,0.0,8.502794992267201,2.453646869550158,0.5686712790383731,,0.0361999637451171,0.000574698974609375,,
32438334,Mergelstetten Cement Plant,DEU,48.6535402966861,10.1628761519788,,,,,,,,,,,,
38480491,Molkerei Meggle Wasserburg Gmbh & Co. Kg,DEU,48.056118,12.185196,,,,,,,,,,,,
38467585,Märker Kalk Gmbh,DEU,48.773801,10.699592,,,,,,,,,,,,
38469141,"Nachtmann Gmbh, Werk Weiden",DEU,49.697034,12.163593,,,,,,,,,,,,
3673049,Neuss aluminium plant,DEU,51.149397,6.78143,,,,,,,,,,,,
38469069,Noelle + Von Campe Glashütte Gmbh,DEU,51.750863,9.398083,,,,,,,,,,,,
38469124,Noelle + Von Campe Gmbh & Co.Kg,DEU,51.756039,9.398766,,,,,,,,,,,,
38480501,Nordzucker Ag Werk Clauen,DEU,52.232852,10.034091,,,,,,,,,,,,
38480506,Nordzucker Ag Werk Nordstemmen,DEU,52.170905,9.795063,,,,,,,,,,,,
38480507,Nordzucker Ag Werk Uelzen,DEU,52.97672,10.556977,,,,,,,,,,,,
38480483,Nordzucker Ag Zuckerfabrik Güstrow,DEU,53.794405,12.219617,,,,,,,,,,,,
38480488,"Nordzucker Ag, Werk Klein Wanzleben",DEU,52.07424,11.385189,,,,,,,,,,,,
38480500,"Nordzucker Ag, Werk Schladen",DEU,52.02305,10.545896,,,,,,,,,,,,
38469071,O-I Glasspack Gmbh & Co. Kg Glashütte Holzminden,DEU,51.808612,9.443788,,,,,,,,,,,,
38469145,O-I Glasspack Gmbh & Co. Kg Werk Bernsdorf,DEU,51.369591,14.067217,,,,,,,,,,,,
38469065,O-I Glasspack Gmbh & Co. Kg Werk Rinteln,DEU,52.198209,9.065182,,,,,,,,,,,,
38469107,"O-I Glasspack Gmbh&Co.Kg, Werk Achern",DEU,48.629581,8.062022,,,,,,,,,,,,
38480511,O. & L. Sels Gmbh & Co. Kg,DEU,51.216611,6.695449,,,,,,,,,,,,
18648358,"OMV Deutschland GMBH , Burghausen, Bavaria ",DEU,48.196096,12.835074,,,,,,,,,,,,
42546193,Otterbein Cement Plant,DEU,50.5843253465486,9.50973202754031,,,,,,,,,,,,
38475078,P.A.C. Gmbh,DEU,50.0577644,10.1945167,,,,,,,,,,,,
32438320,Paderborn Cement Plant,DEU,51.6986367034115,8.74608993795988,,,,,,,,,,,,
38480510,Pfeifer & Langen Gmbh & Co. Kg Werk Appeldorn,DEU,51.72956,6.35856,,,,,,,,,,,,
38480514,Pfeifer & Langen Gmbh & Co. Kg Werk Euskirchen,DEU,50.658772,6.810233,,,,,,,,,,,,
38480513,Pfeifer & Langen Gmbh & Co. Kg Werk Jülich,DEU,50.916616,6.373121,,,,,,,,,,,,
38480516,Pfeifer & Langen Gmbh & Co. Kg Werk Lage,DEU,51.9875,8.804106,,,,,,,,,,,,
38480523,"Pfeifer & Langen Gmbh & Co. Kg, Werk Könnern",DEU,51.695943,11.756972,,,,,,,,,,,,
38469057,Pilkington Deutschland Ag,DEU,49.620087,12.076451,,,,,,,,,,,,
38469084,Pilkington Deutschland Ag -Werk Gladbeck-,DEU,51.577059,6.967307,,,,,,,,,,,,
38480527,Power Oil Rostock Gmbh,DEU,54.150579,12.120518,,,,,,,,,,,,
38469118,Pq Germany Gmbh,DEU,51.355037,12.734915,,,,,,,,,,,,
3673466,"RW silicium GmbH, Werk Pocking",DEU,48.4152171835573,13.3224115229511,,,,,,,,,,,,
38476099,Reichardt Expertise Gmbh & Co Kg,DEU,49.9450626,8.6419701,,,,,,,,,,,,
38467586,Rheinkalk Gmbh,DEU,51.397702,7.841677,,,,,,,,,,,,
38467584,Rheinkalk Gmbh,DEU,51.280036,7.022493,,,,,,,,,,,,
38467582,Rheinkalk Hagen-Halden Gmbh & Co.Kg,DEU,51.375139,7.534006,,,,,,,,,,,,
38476110,Richter Faerberei & Ausruestung Gmbh,DEU,50.078232,8.2442416,,,,,,,,,,,,
1566780,Riva Brandenburg Electric Steel Works,DEU,52.4030012003707,12.5016401694282,,,,,,,,,,,,
1566781,Riva Hennigsdorfer Electric Steel Works,DEU,52.6558286060031,13.2147880278694,,,,,,,,,,,,
32438331,Rohrdorf Cement Plant,DEU,47.7916769410149,12.1814649894562,,,,,,,,,,,,
1896603,Rudersdorf Cement Plant,DEU,52.4889520986127,13.8341533393859,,,,,,,,,,,,
1566782,Saarstahl Völklingen Steelmaking Plant,DEU,49.2441320644899,6.85322502225096,,,,,,,,,,,,
38469115,Saint Gobain Glass Flachglas Torgau Gmbh,DEU,51.579642,13.003551,,,,,,,,,,,,
38469081,Saint-Gobain Glass Deutschland Gmbh,DEU,50.877819,6.089509,,,,,,,,,,,,
38469082,Saint-Gobain Glass Deutschland Gmbh,DEU,50.784839,6.220042,,,,,,,,,,,,
38469109,Saint-Gobain Glass Deutschland Gmbh,DEU,49.523599,8.474829,,,,,,,,,,,,
38469080,Saint-Gobain Glass Deutschland Gmbh,DEU,50.877201,7.060665,,,,,,,,,,,,
38469052,Saint-Gobain Isover G+H Ag,DEU,49.473469,8.611052,,,,,,,,,,,,
38469083,Saint-Gobain Isover G+H Ag,DEU,50.991483,7.116681,,,,,,,,,,,,
38469099,Saint-Gobain Isover G+H Ag,DEU,49.291103,8.469758,,,,,,,,,,,,
1566774,Salzgitter Flachstahl steel plant,DEU,52.1592527001596,10.4070470335969,,,,,,,,,,,,
1566783,Salzgitter Peiner Träger Peine steel plant,DEU,52.316666624687,10.2446911366421,,,,,,,,,,,,
44375504,Sappi Alfeld Kraft Pulp and Paper Mill,DEU,51.987118,9.819078,0.010544603149414,10.52713044614354,4.709516013409543,0.0,15.247191062702496,5.402071536778347,3.5785119731514725,,0.058280828125,,,
44375514,"Sappi Stockstadt GmbH, Division of Sappi Fine Paper Europe",DEU,49.9773198,9.0663252,0.1426767570334042,6.085747938780061,5.719434936137359,0.0,11.947859631950825,15.11908365887595,11.752939198538984,,1.6536708017673865,,,
44375513,Sappi Stockstadt Mill,DEU,49.97624,9.0697,0.1362060100708007,6.745764742855775,6.003066558553059,0.0,12.885037311479635,15.37597632866067,12.16058876487128,,1.780112658357269,,,
32438321,Schelklingen Cement Plant,DEU,48.368162780274,9.73543866757175,,,,,,,,,,,,
38469094,Schott Ag,DEU,50.01418,8.245335,,,,,,,,,,,,
38469072,Schott Ag,DEU,51.954235,9.73747,,,,,,,,,,,,
38469058,"Schott Ag, Standort Mitterteich, Werk 1",DEU,49.946574,12.243557,,,,,,,,,,,,
38469130,Schott Technical Glass Solutions Gmbh,DEU,50.917478,11.573744,,,,,,,,,,,,
38469054,Sgd Kipfenberg Gmbh,DEU,48.954965,11.399792,,,,,,,,,,,,
18648360,"Shell & DEA Oil GMBH , Wesseling ",DEU,50.855184,6.976967,,,,,,,,,,,,
45257183,Sodawerk Staßfurt,DEU,51.863011,11.57823,,,,,,,,,,,,
1896635,Solnhofer Cement Plant,DEU,48.8848302172363,10.9979677962829,,,,,,,,,,,,
3673491,Speira GmbH,DEU,51.151875078520895,6.780602800789029,,,,,,,,,,,,
3673492,Speira GmbH Rheinwerk,DEU,51.151875078520895,6.780602800789029,,,,,,,,,,,,
32438337,Spenner Erwitte Cement Plant,DEU,51.6003453939404,8.33724690957612,,,,,,,,,,,,
44375509,"Sprick GmbH Bielefelder Papier- und Wellpappenwerke & Co., Hauptverwaltung",DEU,52.0249437,8.5625952,0.0236000492594401,0.5390967588194606,2.4707207945824723,0.0,3.0334176026613733,15.04469720896499,19.422453349530628,,0.0460385069580078,,,
3673053,Stade District,DEU,53.5906209282626,9.41466586152748,,,,,,,,,,,,
38480499,Suiker Unie Gmbh & Co. Kg - Zuckerfabrik Anklam,DEU,53.855154,13.710471,,,,,,,,,,,,
38480493,Südstärke Gmbh Werk Sünching,DEU,48.886479,12.35354,,,,,,,,,,,,
38470671,Südwolle Group Gmbh,DEU,49.47025379999999,11.1882621,,,,,,,,,,,,
38480490,Südzucker Ag,DEU,49.239169,9.178853,,,,,,,,,,,,
38480489,Südzucker Ag Mannheim / Ochsenfurt Werk Zeitz,DEU,51.026979,12.088366,,,,,,,,,,,,
38480522,Südzucker Ag Werk Offstein,DEU,49.599903,8.221564,,,,,,,,,,,,
38480545,"Südzucker Ag, Werk Brottewitz",DEU,51.46017,13.22367,,,,,,,,,,,,
38480495,"Südzucker Ag, Werk Ochsenfurt",DEU,49.666637,10.080158,,,,,,,,,,,,
38480492,"Südzucker Ag, Werk Plattling",DEU,48.78762,12.882719,,,,,,,,,,,,
38480497,"Südzucker Ag, Werk Rain",DEU,48.698797,10.908663,,,,,,,,,,,,
38480498,"Südzucker Ag, Werk Wabern",DEU,51.102651,9.359894,,,,,,,,,,,,
38480481,Südzucker Werk Regensburg,DEU,49.012471,12.126067,,,,,,,,,,,,
3673505,TRIMET Aluminium SE,DEU,51.4900491737932,6.96816974780881,,,,,,,,,,,,
3673506,TRIMET Aluminium SE Niederlassung Voerde,DEU,51.6259805408276,6.61515405312614,,,,,,,,,,,,
3673507,"TRIMET Aluminium SE, Niederlassung Hamburg",DEU,53.5123734882408,9.88718579018502,,,,,,,,,,,,
38480547,Ten Kate Gmbh & Co. Kg,DEU,52.829006,7.513117,,,,,,,,,,,,
42546167,Thomas Erwitte Cement Plant,DEU,51.5985778848485,8.34964940346753,,,,,,,,,,,,
1566771,ThyssenKrupp Steel Duisburg steel plant,DEU,51.492850088943,6.72618872977656,,,,,,,,,,,,
38469116,"Ursa Deutschland Gmbh (Ehemals Fa. Pfleiderer) , Werk Delitzsch",DEU,51.50921,12.30542,,,,,,,,,,,,
38469046,Ursa Deutschland Gmbh Werk Delitzsch,DEU,51.509207,12.305453,,,,,,,,,,,,
42546185,Uxheim Cement Plant,DEU,50.3338317714358,6.76669002471993,,,,,,,,,,,,
38469053,Verallia Deutschland Ag,DEU,47.906068,9.875412,,,,,,,,,,,,
38469075,Verallia Deutschland Ag,DEU,51.530037,6.995644,,,,,,,,,,,,
38469055,Verallia Deutschland Ag,DEU,48.737748,11.240146,,,,,,,,,,,,
38469093,Verallia Deutschland Ag,DEU,50.469305,7.783044,,,,,,,,,,,,
38480479,Vion Leutkirch Nl. D. Vion Crailsheim Gmbh,DEU,47.837108,10.00948,,,,,,,,,,,,
3673052,Voerde aluminium plant,DEU,51.622035,6.614466,,,,,,,,,,,,
38476723,W.L. Gore & Associates Gmbh,DEU,48.0753001,11.723802,,,,,,,,,,,,
38473311,Walter Stoehr Gmbh,DEU,49.5487178,12.1544965,,,,,,,,,,,,
38469131,Walther-Glas Deutschland Gmbh,DEU,51.70536,9.036049,,,,,,,,,,,,
38469079,Weck Glaswerk Gmbh,DEU,50.716429,7.036044,,,,,,,,,,,,
38476696,Weinmann Accessories Factory,DEU,48.63008,9.23138,,,,,,,,,,,,
38472894,Wellteam Schöneberg Verpackungs-Gmbh,DEU,52.1000542,8.6315335,,,,,,,,,,,,
38480474,Wichmann Enten Gmbh,DEU,53.132694,7.91273,,,,,,,,,,,,
38469104,"Wiegand- Glashüttenwerke  Gmbh, Werk Schleusingen",DEU,50.523686,10.759155,,,,,,,,,,,,
38469105,Wiegand-Glashüttenwerke Gmbh,DEU,50.581499,10.994712,,,,,,,,,,,,
38469059,Wiegand-Glashüttenwerke Gmbh Werk Steinbach A.Wald,DEU,50.438827,11.381255,,,,,,,,,,,,
38469044,Wiegla Gmbh,DEU,50.042502,8.214402,,,,,,,,,,,,
38474933,Willy Maisel Gmbh - World Of Textiles,DEU,50.26581,11.8401,,,,,,,,,,,,
32438324,Wittekind Erwitte Cement Plant,DEU,51.5948052591744,8.33619636483236,,,,,,,,,,,,
45257203,Wittenberg Fertilizers Complex,DEU,51.8712639,12.582233,,,,,,,,,,,,
1896601,Wossingen Cement Plant,DEU,49.0168706553996,8.61517454767083,,,,,,,,,,,,
44375505,"ZS Zellstoff Stendal GmbH, Mercer Stendal",DEU,52.726328,12.011216,0.0152900819702148,32.940114243564054,9.796321521419747,0.0,42.75172584695402,6.767672951077333,1.7868086064824122,,0.010920478149414,0.0038220009765625,,
38467589,Zellstoff Stendal Gmbh,DEU,52.728271,12.005863,,,,,,,,,,,,
38469056,Zwiesel Kristallglas Ag,DEU,49.017168,13.226812,,,,,,,,,,,,
1896644,Aalborg Cement Plant,DNK,57.0625384389328,9.9761291643243,,,,,,,,,,,,
38480353,Aarhuskarlshamn Denmark A/S,DNK,56.148655,10.203609,,,,,,,,,,,,
38469000,Ardagh Glass Holmegaard A/S,DNK,55.286527,11.817494,,,,,,,,,,,,
38480354,Carlsberg Danmark A/S             Tuborg Fb/Terminal Vest/Fredericia,DNK,55.58468,9.728539,,,,,,,,,,,,
38480355,Carlsberg Supply Company Danmark A/S,DNK,55.583755,9.729934,,,,,,,,,,,,
38480351,Danish Crown A/S - Aalborg,DNK,57.036901,10.024562,,,,,,,,,,,,
38480352,Danish Crown A/S - Herning,DNK,56.133373,8.982221,,,,,,,,,,,,
38480356,Danish Crown A/S - Ringsted,DNK,55.429278,11.798537,,,,,,,,,,,,
38480357,Danpo A/S,DNK,55.805602,9.25673,,,,,,,,,,,,
38479027,Dantoy A/S,DNK,55.7971793,12.5092605,,,,,,,,,,,,
38467375,Faxe Kalk - Ovnanlæg,DNK,55.244319,12.134319,,,,,,,,,,,,
38480358,Lantmännen Cerealia A/S,DNK,55.704924,9.546711,,,,,,,,,,,,
38469002,Leca Danmark A/S,DNK,56.375173,10.042098,,,,,,,,,,,,
38480192,Mp Denmark A/S,DNK,56.1596377,8.9248407,,,,,,,,,,,,
38480348,Nordic Sugar A/S  Nakskov,DNK,54.830418,11.148351,,,,,,,,,,,,
38480349,Nordic Sugar A/S Nykøbing,DNK,54.763005,11.874207,,,,,,,,,,,,
38468999,Rockwool A/S,DNK,56.715767,9.841064,,,,,,,,,,,,
38468998,Rockwool A/S - Vamdrup,DNK,55.431023,9.293185,,,,,,,,,,,,
38480361,Royal Unibrew A/S Albani Bryggerierne A/S,DNK,55.395963,10.397651,,,,,,,,,,,,
38480359,"Royal Unibrew A/S, Faxe Bryggeri",DNK,55.259938,12.11499,,,,,,,,,,,,
38469003,Saint-Gobain Isover A/S,DNK,55.427172,9.295163,,,,,,,,,,,,
38469001,Saint-Gobain Isover A/S,DNK,55.429225,9.300978,,,,,,,,,,,,
38480206,Scanhide A.M.B.A.,DNK,55.071592,10.4411017,,,,,,,,,,,,
38480219,Triplenine A/S,DNK,55.477211,8.425663,,,,,,,,,,,,
38480360,Viking Malt A/S,DNK,55.043773,11.95341,,,,,,,,,,,,
3673159,ALCOA INESPAL - AVILÉS,ESP,43.55547,-5.921992,,,,,,,,,,,,
3673160,"ALCOA INESPAL, S.A. - LA CORUÑA",ESP,43.3507,-8.4359,,,,,,,,,,,,
3673161,"ALCOA TRANSFORMACION DE PRODUCTOS, S.L. (ALCOA TRANSFORMACIÓN DE PRODUCTOS, S.L.)",ESP,43.208909,-2.711608,,,,,,,,,,,,
3673167,"ALUMINIO ESPAÑOL, SA",ESP,43.69597,-7.473746,,,,,,,,,,,,
38480923,Ab Azucarera Iberia S.L.U  De Miranda,ESP,42.697133,-2.92635,,,,,,,,,,,,
32438403,Aboño Cement Plant,ESP,43.5604263265438,-5.72257871498625,,,,,,,,,,,,
1566801,Acerinox Europa Los Barrios steel plant,ESP,36.1814675603887,-5.42232062808179,,,,,,,,,,,,
38480903,Affinity Petcare,ESP,41.313652,1.654139,,,,,,,,,,,,
38469285,Agc Flatglass Iberica,ESP,39.643104,-0.255923,,,,,,,,,,,,
38481015,Agraz S.A.,ESP,38.88365,-6.856241,,,,,,,,,,,,
38469279,"Aiala Vidrio,  S.A. (Vidrala)",ESP,43.149036,-2.946433,,,,,,,,,,,,
32438397,Alcala Cement Plant,ESP,37.359723840258,-5.86499004502465,,,,,,,,,,,,
1896716,Alcanar Cement Plant,ESP,40.5768302301151,0.542746637307943,,,,,,,,,,,,
1896699,Alconera Cement Plant,ESP,38.3789017892832,-6.48408551062447,,,,,,,,,,,,
38480933,"Alcurnia Alimentación, S. L. U. - Fábrica De Alguazas",ESP,38.05,-1.233333,,,,,,,,,,,,
32438400,Alicante Cement Plant,ESP,38.3773602768192,-0.543228553000335,,,,,,,,,,,,
38469728,Antex Angles Textile Sa,ESP,41.9552063,2.6603861,,,,,,,,,,,,
38479107,Aprestos De Laneria Spa,ESP,41.5677592,2.1082727,,,,,,,,,,,,
1566806,ArcelorMittal Asturias (Aviles) steel plant,ESP,43.5494928691444,-5.8613493584995,,,,,,,,,,,,
1566799,ArcelorMittal Asturias (Gijón) steel plant,ESP,43.5215953028212,-5.73559459129581,,,,,,,,,,,,
1566805,ArcelorMittal Olaberria-Bergara (Olaberria) steel plant,ESP,43.0376945024084,-2.21881534294849,,,,,,,,,,,,
1566800,ArcelorMittal Sestao steel plant,ESP,43.313365497902,-2.99935881132845,,,,,,,,,,,,
32438406,Arrigorriaga Cement Plant,ESP,43.204986601252,-2.90014458252755,,,,,,,,,,,,
38481014,"Avinatur Sur Producciones Avícolas, S.L.U.",ESP,37.31,-3.154,,,,,,,,,,,,
38480909,"Avícola Moraleja, S.A.",ESP,40.2543,-3.873828,,,,,,,,,,,,
38480979,Azucarera De Jerez - Centro De Guadalete,ESP,36.658576,-6.12817,,,,,,,,,,,,
38481017,Azucarera De La Bañeza,ESP,42.303933,-5.907831,,,,,,,,,,,,
38480972,Azucarera De Toro,ESP,41.512081,-5.37755,,,,,,,,,,,,
38480912,Azucarera La Rinconada,ESP,37.478231,-5.944838,,,,,,,,,,,,
32438408,Añorga Cement Plant,ESP,43.2856206876887,-1.99710189549101,,,,,,,,,,,,
38469298,Ba Glass Spain Villafranca,ESP,38.566875,-6.356428,,,,,,,,,,,,
38469269,"Ba Glass Spain, S.L.",ESP,42.550109,-5.581055,,,,,,,,,,,,
38469555,Belda Lloréns,ESP,38.7066719,-0.6639426,,,,,,,,,,,,
38470463,Best Partner Consulting,ESP,38.1213691,-0.7830189,,,,,,,,,,,,
38469296,"Bonet Spain, S.L",ESP,40.14989,0.028807,,,,,,,,,,,,
38481029,Borges Agricultural & Industrial Edible Oils,ESP,41.648843,1.121329,,,,,,,,,,,,
38481011,Bunge Iberica,ESP,41.360833,2.169759,,,,,,,,,,,,
38480902,Bunge Iberica,ESP,43.356358,-3.086221,,,,,,,,,,,,
38480913,Bunge Ibérica,ESP,39.449836,-0.327623,,,,,,,,,,,,
38481025,"Bunge Ibérica, S.A.U.",ESP,37.566691,-0.952163,,,,,,,,,,,,
32438398,Bunol Cement Plant,ESP,39.4369712228479,-0.775640605440604,,,,,,,,,,,,
38467724,Cales De Pachs,ESP,41.366699,1.684755,,,,,,,,,,,,
38477200,Calzados Cienta Slu,ESP,42.2353611,-2.088897,,,,,,,,,,,,
38480929,"Campo De San Juan, S.L.",ESP,39.4131,-3.2217,,,,,,,,,,,,
32438409,Carboneras Cement Plant,ESP,36.9678611386393,-1.90590614319663,,,,,,,,,,,,
38480857,Cargill (Barcelona),ESP,41.346774,2.15847,,,,,,,,,,,,
38480889,Cargill (Martorell),ESP,41.486141,1.928261,,,,,,,,,,,,
38480969,Cargill (Reus),ESP,41.161372,1.081393,,,,,,,,,,,,
38469256,Castellar Vidrio,ESP,41.592341,2.093161,,,,,,,,,,,,
1896717,Castillejo Cement Plant,ESP,39.9342732016715,-3.74366467919908,,,,,,,,,,,,
38475267,Castma S.L,ESP,39.99951129999999,-0.0422795,,,,,,,,,,,,
1566803,Celsa Barcelona Castellbisbal steel plant,ESP,41.4525778066815,1.98099199913505,,,,,,,,,,,,
1566808,Celsa Global Steel Wire Santander plant,ESP,43.4449201235133,-3.8413172497133,,,,,,,,,,,,
1566812,Celsa Nervacero steel plant,ESP,43.3071840959396,-3.02441085805676,,,,,,,,,,,,
38480973,Centro De Marchena,ESP,37.333937,-5.400128,,,,,,,,,,,,
38481038,Centro Industrial Chapela,ESP,42.2862,-8.60665,,,,,,,,,,,,
38469237,Cerfrit,ESP,39.831481,-0.170485,,,,,,,,,,,,
38469234,Coloresmalt,ESP,40.111574,-0.211701,,,,,,,,,,,,
38469286,Colorificio Cerámico Bonet,ESP,40.017405,-0.275492,,,,,,,,,,,,
38469275,Colorobbia España,ESP,40.122092,-0.019033,,,,,,,,,,,,
38469235,Coloronda,ESP,39.96862,-0.233741,,,,,,,,,,,,
38480976,"Comercial Jabu, S.L.",ESP,37.927256,-6.772916,,,,,,,,,,,,
38481001,Compañia Cervecera Damm,ESP,41.32101,2.081639,,,,,,,,,,,,
38480966,Complejo Agroalimentario Bejar,ESP,40.38948,-5.76527,,,,,,,,,,,,
38481007,"Complejo Industrial Mataderos Industriales Soler, S.A. (Prolongo) Y Faccsa",ESP,36.735751,-4.608509,,,,,,,,,,,,
38481016,Complex Carni La Closa,ESP,41.793379,1.289419,,,,,,,,,,,,
38481046,Conesa Vegas Altas S.L.U.,ESP,39.133189,-5.939741,,,,,,,,,,,,
38480940,"Conserveros Reunidos, S.L.",ESP,42.529925,-9.038891,,,,,,,,,,,,
38481022,"Cooperativa Del Campo ""San Miguel""",ESP,41.911769,-1.259908,,,,,,,,,,,,
38481049,Coosur Vilches,ESP,38.220662,-3.517708,,,,,,,,,,,,
32438414,Cordoba Cement Plant,ESP,37.9026862680405,-4.76403399257607,,,,,,,,,,,,
38481033,Corsa Petfood (Cardona),ESP,41.900239,1.713645,,,,,,,,,,,,
38476959,Costa Anatomicas Sl,ESP,38.1270687,-1.0020131,,,,,,,,,,,,
38480866,Cpa Centro De Procesado Avicola,ESP,42.343667,-7.983433,,,,,,,,,,,,
38472907,Creaciones Euromoda S.L.,ESP,38.7563069,-0.6161235,,,,,,,,,,,,
38475428,Crechi International S.A.,ESP,39.56661769999999,-0.5346586,,,,,,,,,,,,
38469267,"Crisnova Vidrio, S.A.",ESP,38.7149,-0.9578,,,,,,,,,,,,
38480932,"Cítricos Del Andévalo, S.A.",ESP,37.461227,-7.264199,,,,,,,,,,,,
38477041,"Dedatex 86, S.L",ESP,40.4167754,-3.7037902,,,,,,,,,,,,
38480985,"Deoleo, S.A. (Fabrica De Andújar)",ESP,38.03118,-4.06033,,,,,,,,,,,,
38474278,Diego Torvisco,ESP,41.5600797,2.4554698,,,,,,,,,,,,
38467392,"Dolomias De Aragon, S.L.",ESP,41.479036,-1.56847,,,,,,,,,,,,
18648372,"Dow Chemical Co. , Tarragona ",ESP,41.176316,1.231963,,,,,,,,,,,,
32438394,El Alto Cement Plant,ESP,40.2454541220543,-3.47415630858244,,,,,,,,,,,,
38480864,El Pozo Alimentación,ESP,37.85,-1.41,,,,,,,,,,,,
38469277,Endeka Ceramics-Vall D´Alba,ESP,40.161737,-0.006249,,,,,,,,,,,,
38469299,Esmaldur,ESP,40.035189,-0.152434,,,,,,,,,,,,
38469231,Esmalglass,ESP,39.946256,-0.157894,,,,,,,,,,,,
38469226,Esmaltes,ESP,40.062664,-0.19348,,,,,,,,,,,,
38481032,Explotaciones Avicolas Jose Luis Redondo S.A.,ESP,40.308192,-3.784365,,,,,,,,,,,,
3673296,FERROATLANTICA - FÁBRICA DE BOO,ESP,43.41228,-3.839765,,,,,,,,,,,,
3673297,FERROATLANTICA DE BOO,ESP,43.41228,-3.839765,,,,,,,,,,,,
3673298,FERROATLANTICA-CEE,ESP,42.948199,-9.17315,,,,,,,,,,,,
3673299,FERROATLANTICA-DUMBRIA,ESP,42.983626,-9.08549,,,,,,,,,,,,
38480906,Fabrica De Piensos Nº2,ESP,42.287867,-7.820767,,,,,,,,,,,,
38480975,Fabrica De Pinsos De Lleida,ESP,41.616647,0.649984,,,,,,,,,,,,
38480982,"Factoría Oleícola Aceites Coosur, S.A.",ESP,37.94119,-3.527145,,,,,,,,,,,,
38474430,Fello S.A.,ESP,41.6291032,1.8641519,,,,,,,,,,,,
38469297,Ferro Spain Nules,ESP,39.829172,-0.162647,,,,,,,,,,,,
38469284,Ferro Spain-Almassora,ESP,39.956492,-0.076592,,,,,,,,,,,,
38480971,Frimancha Industrias Cárnicas,ESP,38.7711,-3.3994,,,,,,,,,,,,
38480968,"Frinova, S.A.",ESP,42.127671,-8.623723,,,,,,,,,,,,
38480924,Frinsa Del Noroeste S.A.,ESP,42.577494,-8.997258,,,,,,,,,,,,
38469229,Fritta Slu,ESP,39.95459,-0.20156,,,,,,,,,,,,
38469242,"Fábrica De Alcalá De Guadaira (Saint Gobain Vicasa, S.A.)",ESP,37.302987,-5.889481,,,,,,,,,,,,
38469255,"Fábrica De Alcalá De Guadaira (Vidriera Rovira, S.L.)",ESP,37.333934,-5.833487,,,,,,,,,,,,
38480819,"Fábrica De Granada (Puleva Food, S.L. Sociedad Unipersonal)",ESP,37.179721,-3.637626,,,,,,,,,,,,
38469288,"Fábrica De Jerez (Saint Gobain Vicasa, S.A.)",ESP,36.685097,-6.124322,,,,,,,,,,,,
38481004,General D'Olis I Derivats,ESP,41.524712,0.793693,,,,,,,,,,,,
38473086,Genuins,ESP,38.2991244,-0.6131261,,,,,,,,,,,,
38479372,Global De Calzado Sl,ESP,42.2353611,-2.088897,,,,,,,,,,,,
38481018,Grupo Alimentario Argal,ESP,41.611588,0.881271,,,,,,,,,,,,
44375519,"Grupo Empresarial ENCE S.A. Divisíon de Celulosa, Pulp Mill Navia",ESP,43.5275013,-6.7240832,0.0156518173217773,4.674792771273983,9.765849158455644,0.0,14.456293747051404,4.065412448080863,1.6239704912547397,,0.0065220761108398,0.0,,
44375518,"Grupo Empresarial ENCE S.A. Divisíon de Celulosa, Pulp Mill Pontevedra",ESP,42.4108321,-8.6759041,0.1009399728393554,0.0601926385088752,5.966735374689797,0.0059738957519531,6.133841881789982,5.025532719107835,5.960539058280198,,16.093565523008337,0.2511404348036822,,
1566807,Grupo Gallardo Corrugados Getafe steel plant,ESP,40.3106603989214,-3.70579830284928,,,,,,,,,,,,
1566802,Grupo Gallardo Siderurgica Balboa Jerez de los Caballeros steel plant,ESP,38.320422296635,-6.71619487423941,,,,,,,,,,,,
38469261,"Guardian Industries Navarra, S.L.U.",ESP,42.125474,-1.665802,,,,,,,,,,,,
38469280,"Guardian Llodio Uno, S.L.",ESP,43.144824,-2.950052,,,,,,,,,,,,
38480981,"Harinera De Tardienta, S.A.",ESP,41.978189,-0.536634,,,,,,,,,,,,
38480846,Heineken España - Fabrica De Madrid,ESP,40.55926,-3.63038,,,,,,,,,,,,
38471149,Hilaturas Miel S.L.,ESP,38.4260809,-0.4350982,,,,,,,,,,,,
32438396,Hontoria Cement Plant,ESP,41.941321666224,-4.46577172747526,,,,,,,,,,,,
38480934,"Incoas, S.A.(Industrias Correctoras Asociadas, S.A.)",ESP,40.183333,-3.783333,,,,,,,,,,,,
38481002,Industria Láctea - Planta De Cogeneración,ESP,38.360414,-4.835884,,,,,,,,,,,,
38480984,Industrias Carnicas La Cope,ESP,39.440088,-0.501312,,,,,,,,,,,,
38480931,Industrias Cárnicas Tello S.A.,ESP,39.7248,-4.2499,,,,,,,,,,,,
38479693,Iruna Comunicación Textil - Serisur,ESP,37.1930851,-3.7868307,,,,,,,,,,,,
38479672,Jaume Estevez I Serra,ESP,41.7092908,2.7156021,,,,,,,,,,,,
1896731,Jerez Cement Plant,ESP,36.6184333442247,-6.07391138282183,,,,,,,,,,,,
38474691,Jess Rincon,ESP,38.2932723,-0.6218229,,,,,,,,,,,,
38472301,Julio Maestre,ESP,40.9839999,-5.1507667,,,,,,,,,,,,
38469240,Kerafrit S.A.,ESP,39.943876,-0.144992,,,,,,,,,,,,
38480935,"La Casa De La Carne, S.A.U.",ESP,40.271651,-3.741853,,,,,,,,,,,,
32438404,La Robla Cement Plant,ESP,42.7987222771851,-5.61847607002069,,,,,,,,,,,,
38480978,"Lactiber Leon , S.L.",ESP,42.570278,-5.571667,,,,,,,,,,,,
38479932,Laken Productos Deportivos S.A.,ESP,37.9514997,-1.1849603,,,,,,,,,,,,
32438392,Lemona Cement Plant,ESP,43.2062343456623,-2.77404364655401,,,,,,,,,,,,
38481050,Liverco Sl,ESP,41.9783,-1.4641,,,,,,,,,,,,
38480014,Luanvi S.A,ESP,39.5528369,-0.4650515,,,,,,,,,,,,
3673055,Lugo Province,ESP,43.0696037894801,-7.43612713537432,,,,,,,,,,,,
32438407,Malaga Cement Plant,ESP,36.7146543931554,-4.32714450818174,,,,,,,,,,,,
38480922,"Manuel Romero Delgado, S.L.",ESP,37.922795,-6.72952,,,,,,,,,,,,
38477765,"Maria Gili Margenats, S.L",ESP,41.6272797,2.6677949,,,,,,,,,,,,
38481008,Matadero Comaran,ESP,40.034164,-3.621385,,,,,,,,,,,,
38480999,"Matadero De Cumbres Mayores, S.A.",ESP,38.056981,-6.619334,,,,,,,,,,,,
38480905,Matadero De Porriño Sada P.A. Castilla-Galicia,ESP,42.166264,-8.621279,,,,,,,,,,,,
38480997,Matadero De Tres Líneas Y Salas De Despiece,ESP,38.361359,-4.833046,,,,,,,,,,,,
38481009,"Matadero Del Sur, S.A.",ESP,37.83,-6.04,,,,,,,,,,,,
38480980,Matadero Frigorifico De Fuentes El Navazo Sl,ESP,40.508056,-5.678333,,,,,,,,,,,,
38480907,"Matadero Frigorífico Begíjar, S.A.",ESP,37.953954,-3.53476,,,,,,,,,,,,
38480974,"Matadero Industrial Cortegana, S.A.",ESP,37.916802,-6.819082,,,,,,,,,,,,
38480908,"Matadero Industrial El Mayorazgo De Jabugo, S.A.",ESP,37.377194,-6.95186,,,,,,,,,,,,
38481019,"Matadero La Jabugueña, S.L.",ESP,37.921612,-6.723649,,,,,,,,,,,,
38480910,Matadero Y Sala De Despiece De Cerdo Ibérico,ESP,37.920504,-6.665757,,,,,,,,,,,,
38480983,"Mataderos Salamanca, S.L.",ESP,40.855,-5.637222,,,,,,,,,,,,
32438393,Mataporquera Cement Plant,ESP,42.8742474429706,-4.15899585440909,,,,,,,,,,,,
1566809,Megasa Siderúrgica Narón steel plant,ESP,43.514105214474,-8.16427214835909,,,,,,,,,,,,
1566810,Megasider Zaragoza steel plant,ESP,41.5704186313669,-0.856130639358379,,,,,,,,,,,,
38480786,Mercados De Abastecimientos De Barcelona,ESP,41.335324,2.118837,,,,,,,,,,,,
42546253,Monjos Cement Plant,ESP,41.315910427371,1.73006548253867,,,,,,,,,,,,
1896732,Montcada i Reixac Cement Plant,ESP,40.0067824857125,-3.89865850040067,,,,,,,,,,,,
38480904,"Montesano Extremadura, S.A.",ESP,38.33,-6.77,,,,,,,,,,,,
1896714,Morata Cement Plant,ESP,41.4748067107374,-1.48622168206856,,,,,,,,,,,,
38476526,Morera Pell Sl,ESP,41.5778541,1.6141494,,,,,,,,,,,,
38481023,Nafosa-Esplus,ESP,41.798563,0.273449,,,,,,,,,,,,
38480891,"Nanta, S.A.",ESP,38.696333,-6.403549,,,,,,,,,,,,
38481043,"Nanta, S.A.U. Las Palas",ESP,37.73,-1.140003,,,,,,,,,,,,
32438415,Niebla Cement Plant,ESP,37.3593414755945,-6.67217728819555,,,,,,,,,,,,
38469291,Ocv Reinforcements Alcala Spain S.L.,ESP,40.51014,-3.35151,,,,,,,,,,,,
32438395,Olazagutia Cement Plant,ESP,42.883060127164,-2.19019985454442,,,,,,,,,,,,
1896738,Oural Cement Plant,ESP,42.71711357698,-7.45067797746704,,,,,,,,,,,,
38480970,"Palacios Alimentación, S.A.",ESP,42.365774,-2.481923,,,,,,,,,,,,
38481028,Patel,ESP,42.01319,2.342239,,,,,,,,,,,,
38481003,Piensos Nanfor,ESP,42.78,-8.650278,,,,,,,,,,,,
38481035,Productos Florida,ESP,39.965329,-0.143257,,,,,,,,,,,,
45257169,Puertollano Fertilizers,ESP,38.66396,-4.0584502,,,,,,,,,,,,
38481041,Puleva Food,ESP,41.632528,0.903825,,,,,,,,,,,,
38469276,Quimicer,ESP,40.007015,-0.271114,,,,,,,,,,,,
38469316,Ramon Clemente,ESP,41.483939,2.327623,,,,,,,,,,,,
38477892,Ranch Exportaciones Sl,ESP,38.2899949,-0.6117391,,,,,,,,,,,,
18648373,"Repsol SA , Puertollano ",ESP,38.6705,-4.054309,,,,,,,,,,,,
18648374,"Repsol SA , Tarragona",ESP,41.172192,1.226878,,,,,,,,,,,,
1566804,Riva Siderurgica Sevillana steel plant,ESP,37.3627487544071,-5.88738203327593,,,,,,,,,,,,
38480776,Roquette Laisa España,ESP,39.286119,-0.424301,,,,,,,,,,,,
38480842,S.A.T. Nufri 1956,ESP,41.641266,0.889134,,,,,,,,,,,,
38480901,S.C.A. Las Marismas De Lebrija,ESP,36.917268,-6.066825,,,,,,,,,,,,
45257235,Sagunto Catalina Project,ESP,39.6476923210642,-0.224196877555634,,,,,,,,,,,,
32438412,Sagunto Cement Plant,ESP,41.4745038735946,2.18354854001366,,,,,,,,,,,,
38469264,Saint Gobain Cristaleria - Fábrica De Avilés,ESP,43.575665,-5.929742,,,,,,,,,,,,
38469246,Saint Gobain Vicasa - Azuqueca,ESP,40.5618,-3.2595,,,,,,,,,,,,
38469268,Saint-Gobain Cristaleria,ESP,41.26198,1.588972,,,,,,,,,,,,
38469290,Saint-Gobain Glass.- Fabrica De Renedo,ESP,43.35404,-3.94758,,,,,,,,,,,,
38469270,"Saint-Gobain Isover Ibérica, S.L.",ESP,40.5646,-3.2563,,,,,,,,,,,,
43765130,San Ciprian alumina refinery,ESP,43.6969652655661,-7.45773751379732,,,,,,,,,,,,
43765124,San Ciprian aluminium plant,ESP,43.6969652655661,-7.45773751379732,,,,,,,,,,,,
42546247,Sant Vicent dels Horts Cement Plant,ESP,41.4066305463557,1.99565717099174,,,,,,,,,,,,
38476171,Satinsa,ESP,38.8312414,-0.5570476,,,,,,,,,,,,
38469289,Schott Iberica,ESP,41.430468,2.227346,,,,,,,,,,,,
1566811,Sidenor Aceros Especiales Basauri steel plant,ESP,43.2263099396927,-2.88294175802448,,,,,,,,,,,,
38469314,Smalticeram España,ESP,39.960199,-0.234151,,,,,,,,,,,,
44375517,Smurfit Kappa Nervión S.A.,ESP,43.1828069,-2.6605848,0.0439545202636718,0.0905192004320331,3.4173381999207737,0.0,3.5518119206164784,4.414807054068532,3.972558686460488,,,,,
32267403,Spain,ESP,40.348656106226734,-3.6170206023873743,,,,,,,,,,,,
38470667,Spw Fabrics,ESP,41.5936622,2.4003412,,,,,,,,,,,,
38472464,Star Vie S.L.,ESP,40.5587223,-3.2601311,,,,,,,,,,,,
38480887,Syral Iberia S.A.U.,ESP,41.677422,-0.874008,,,,,,,,,,,,
38480878,"Sánchez Romero Carvajal Jabugo, S.A.",ESP,37.919001,-6.725019,,,,,,,,,,,,
38476435,Takeme Shoes S.L.,ESP,38.29356689999999,-0.6174038,,,,,,,,,,,,
38471707,Textprint,ESP,41.5911628,2.3343833,,,,,,,,,,,,
32438417,Toral de los Vados Cement Plant,ESP,42.5543150646197,-6.76830049907962,,,,,,,,,,,,
38469227,Torrecid I Y Ii,ESP,40.061138,-0.189229,,,,,,,,,,,,
38481000,"Transformaciones Agrícolas De Badajoz, S.A Transa",ESP,38.985,-5.7825,,,,,,,,,,,,
38467725,Tudela Veguin - Fábrica De Cales Y Cementos De Tudela Veguín,ESP,43.330897,-5.773367,,,,,,,,,,,,
32438405,Tudela de Vegin Cement Plant,ESP,43.3301019072309,-5.7750954023731,,,,,,,,,,,,
38481045,"Unilever Foods España, S.A. (Unilever Foods España, S.A.)",ESP,43.319378,-3.002984,,,,,,,,,,,,
38469253,Ursa Iberica Aislantes,ESP,41.350337,1.301435,,,,,,,,,,,,
38480998,"Uve, S.A. (Fab. Piensos)",ESP,41.63,-4.698611,,,,,,,,,,,,
38480911,"Uvesa, S.A.",ESP,36.707744,-4.509509,,,,,,,,,,,,
38475715,Varisport S.L.,ESP,41.5596943,2.0943142,,,,,,,,,,,,
38469247,Verallia - Zgz (Anterior S.Gobain Vicasa),ESP,41.59879,-0.943928,,,,,,,,,,,,
38469273,Verallia Spain,ESP,41.39473,1.13815,,,,,,,,,,,,
38469244,"Verallia-Spain, S.A. - Burgos",ESP,42.349764,-3.655664,,,,,,,,,,,,
38469272,"Verescence La Granja, S.L.U.",ESP,40.901928,-4.011321,,,,,,,,,,,,
38469228,Vernis,ESP,39.973667,-0.241342,,,,,,,,,,,,
38475724,Vidreres 2000 S.L.,ESP,41.6540445,2.7398491,,,,,,,,,,,,
38469313,Vidres,ESP,39.945733,-0.143615,,,,,,,,,,,,
38469287,Vidriera Del Atlántico S.A.,ESP,42.082778,-7.721944,,,,,,,,,,,,
38469271,Vidrieras Canarias S.A.,ESP,27.980152,-15.384378,,,,,,,,,,,,
38469224,Vidrieria Rovira,ESP,41.327397,2.125607,,,,,,,,,,,,
38469315,Vidrierias Masip,ESP,41.356884,2.084662,,,,,,,,,,,,
38469282,"Vidriería Y Cristalería De Lamiaco, S.A. (Vidriería Y Cristalería De Lamiaco S.A.)",ESP,43.32083,-3.00588,,,,,,,,,,,,
38469319,"Vidrios Reciclados San Miguel, S.L.",ESP,38.887358,-0.582855,,,,,,,,,,,,
32438413,Villaluenga de la Sagra Cement Plant,ESP,39.6639869817604,-0.247555509290133,,,,,,,,,,,,
3673570,"XALLAS ELECTRICIDAD Y ALEACIONES, SAU-DUMBRIA",ESP,42.983626,-9.08549,,,,,,,,,,,,
44375520,"Estonian Cell AS, Heinzel Group",EST,59.501988,26.5481615,0.2075238153686523,9.883142670760453,15.063681426235668,0.00045803118896484374,25.15480594355374,20.88572639985199,1.2633762415179084,,13.16197424728082,1.0447856423034667,,
38469972,Fein-Elast Estonia Ou,EST,58.4113641,24.6629119,,,,,,,,,,,,
38472822,Mivar-Viva  Ldt,EST,58.3675039,25.6012233,,,,,,,,,,,,
38469004,"O-I Production Estonia As, Järvakandi Klaasitehas",EST,58.777971,24.813915,,,,,,,,,,,,
44375534,Aanekoski Bioproduct Pulp Mill,FIN,62.596,25.741,0.1326645155944824,2.686123900696399,1.5401116116767437,0.0,4.358900027967625,14.860332101216626,2.524426408887078,,23.1239426550718,0.2001249975891113,,
38469006,"Ahlstrom Glassfibre Oy, Karhulan Tehdas",FIN,60.507454,26.926696,,,,,,,,,,,,
38480362,"Atria Suomi Oy, Nurmon Tuotantolaitos",FIN,62.825571,22.960409,,,,,,,,,,,,
18648345,"Borealis OY, Porvoo",FIN,60.299615,25.48957,,,,,,,,,,,,
44375535,Enocell Pulp Mill,FIN,62.919186,30.230598,0.0197438481445312,0.3003331371674183,2.864517864680032,0.004113401763916,3.188708251755898,32.79506067916507,1.0693964642937157,,19.408592906752048,0.4000866887533748,,0.000410793701171875
38469012,"Evonik Silica Finland Oy, Taavetin Tehdas",FIN,60.912651,27.564191,,,,,,,,,,,,
38469008,"Fiskars Finland Oy Ab, Iittalan Lasitehdas",FIN,61.089103,24.133127,,,,,,,,,,,,
44375536,Kaskinen Pulp Mill,FIN,62.22108,21.144193,0.0,0.0,0.0,0.0,0.0,,,,78.06998266998906,,,
32438427,Lappeenranta Cement Plant,FIN,61.0334992509176,28.1769993502943,,,,,,,,,,,,
44375525,Metsä Board Cartonboard Division Joutseno Mill,FIN,61.1282381,28.4669153,0.0708069130624808,7.334396533702772,1.8309350260288615,0.0056677073974609,9.241806180191574,16.702717805150293,2.75450425722381,,21.03562325522564,0.1504154972839355,,
44375524,Metsä Board Linerboard and Paper Division Kaskinen Mill,FIN,62.3822834,21.2277852,0.0628586514587402,0.1498371409301757,2.007649783834539,0.003765046875,2.2241106230984546,19.03801111556219,1.2875461081237791,,28.018394610107176,1.205350465143061,,
44375522,Metsä Fibre Oy,FIN,60.170885,24.806265,0.1386448896592084,0.2674131259851791,2.1654533451395657,0.0,2.571511360783953,10.637862396999823,10.224379766884836,,28.995154499815357,0.2843444714548148,,
44375526,"Metsä Fibre Oy, Joutseno Mill",FIN,61.1279785,28.4477818,0.0646232648100011,4.987716403264903,1.5532335380187987,0.0056677073974609,6.611240913491163,15.939187698415717,2.6345702203203984,,26.12181552677142,0.1517241393127441,,
44375529,"Metsä Fibre Oy, Rauma Mill",FIN,61.1108083,21.4601152,0.4929730077209472,1.1441898506174124,2.878998856197102,0.0008738570556640625,4.5170355715911255,17.139707735257016,7.061241571184226,,29.357751613425982,0.3810714000566071,,
44375521,"Metsä Fibre Oy, Äänekoski Mill",FIN,62.5907343,25.7521142,0.1318542480311973,2.449727750582587,1.4590197698388194,0.0,4.040601768452603,15.664048054355272,2.573508612632961,,21.994978043660293,0.2058484133623908,,
38467376,"Nordkalk Oy Ab, Ihalaisen Kaivos",FIN,61.01585,28.183238,,,,,,,,,,,,
38467381,"Nordkalk Oy Ab, Louhi",FIN,61.92459,29.02752,,,,,,,,,,,,
38467380,"Nordkalk Oy Ab, Paraisten Kalkkitehdas Ja Satama",FIN,60.29547,22.29711,,,,,,,,,,,,
38467377,"Nordkalk Oy Ab, Tytyrin Kalkkitehdas",FIN,60.260759,24.066934,,,,,,,,,,,,
38467379,"Nordkalk Oyj Abp, Raahen Kalkinpolttamo",FIN,64.65493,24.41319,,,,,,,,,,,,
38469005,"O-I Manufacturing Finland Oy, Pakkauslasitehdas",FIN,60.507281,26.9398,,,,,,,,,,,,
1566814,Outokumpu Tornio steel plant,FIN,65.7714885234781,24.1769041033015,,,,,,,,,,,,
1566815,Ovako Imatra steel plant,FIN,61.1486118429611,28.7991638915772,,,,,,,,,,,,
44375537,Pankakoski Pulp and Cartonboard Mill,FIN,63.192955,30.82435,0.0016309210205078,0.0048910728149414,6.107452157601631,0.0,6.11397415143708,40.25391800064123,0.0309335698288861,,3.0170610102148925,0.4734048432323979,,0.0040725259399414
32438428,Paraisten Cement Plant,FIN,60.2852835024948,22.2887165863466,,,,,,,,,,,,
44375538,Pietarsaari Pulp Mill,FIN,63.701563,22.706674,0.1633811675109863,1.6211931839631926,6.162289380030017,0.0032036162109375,7.950067347715133,17.14353729464324,5.177558781627819,,21.62254820986147,1.0392378522490855,,
38469007,Pilkington Lahden Lasitehdas Oy,FIN,60.962286,25.591362,,,,,,,,,,,,
44375539,Rauma Pulp Mill,FIN,61.111671,21.466299,0.499948876586914,1.323075629276889,3.0895658168696403,0.0008738570556640625,4.913464179789107,17.87637130048349,7.437390210687735,,27.159009307191027,0.3580475748095942,,
1566813,SSAB Raahe steel plant,FIN,64.6488541747634,24.422209243521,,,,,,,,,,,,
38469014,"Saint-Gobain Finland Oy, Isover Forssan Lasivillatehdas",FIN,60.80731,23.59987,,,,,,,,,,,,
38469013,"Saint-Gobain Finland Oy, Isover, Hyvinkään Lasivillatehdas",FIN,60.65682,24.8555,,,,,,,,,,,,
38467378,"Sma Mineral Oy, Röyttän Kalkkitehdas",FIN,65.75984,24.1556,,,,,,,,,,,,
44375531,"Stora Enso Biomaterials, Enocell Pulp Mill",FIN,62.9212369,30.2292483,0.0197438481445312,0.270370420135498,2.6628198343396945,0.004113401763916,2.95704750438364,32.616447689015054,1.0729622857317758,,19.689951923518503,0.370840295092175,,0.000410793701171875
44375530,"Stora Enso Oyj, Sunila Pulp Mill",FIN,60.4934978,26.9521607,0.3061415445861816,1.4162086843554924,2.328759614684101,0.0,4.051109843625776,13.941437756263046,9.692451382886352,,28.89355940365684,0.7101664486172546,,
44375532,"Stora Enso Oyj, Varkaus Mill",FIN,62.3246584,27.8961002,0.221146564666748,1.0656647793439085,1.5742747078099868,0.0,2.861086051820643,21.024299707844808,4.739514183228856,,18.95804168555644,0.17690250184757,,
44375533,Stora Enso Packaging Papers Varkaus,FIN,62.3195831,27.8991735,0.2222556508865655,1.0627888200761384,1.6624538673782647,0.0,2.9474983383409685,21.581496621047055,4.804395226155958,,18.030254174744048,0.2074641008476706,,
44375523,UPM Group - Paper Industry,FIN,60.1671177,24.9517049,0.2614558571166992,0.0282870983276367,1.0011418717615466,0.0,1.2908848272058826,5.281585965218579,9.977094229704385,,37.93751010498541,0.1015652003155876,,
44375527,"UPM Group - Paper Industry, Kaukas Mill",FIN,61.0663059,28.2307043,0.2142257116542442,3.501327817433554,1.8454759728247552,0.0,5.561029501912554,14.244576515751865,8.809301234870937,0.0,18.63363996470849,0.0591719362948548,,
44375528,"UPM Group - Paper Industry, Pietarsaari Mill",FIN,63.6744036,22.6966088,0.1773622187438965,2.678584456589284,7.46255953245275,0.0264704152832031,10.344976623069133,23.839583369784233,5.962332213970228,,10.02346063091633,0.991905224049168,,
38480363,"Valio Oy, Elintarviketeollisuus, Lapinlahden Tehdas",FIN,63.359404,27.373034,,,,,,,,,,,,
3673166,ALTEO GARDANNE,FRA,43.45,5.47,,,,,,,,,,,,
3673168,ALUMINIUM DUNKERQUE,FRA,51.0,2.22,,,,,,,,,,,,
3673169,ALUMINIUM DUNKERQUE SAS,FRA,51.0011,2.22,,,,,,,,,,,,
3673170,ALVANCE ALUMINIUM DUNKERQUE SAS,FRA,51.0011,2.22,,,,,,,,,,,,
38480232,Abattoir Municipal De Saint-Yrieix,FRA,45.52,1.2,,,,,,,,,,,,
38480451,Abattoirs Des Crêts,FRA,46.2208,5.2253,,,,,,,,,,,,
38480486,Abattoirs Des Crêts,FRA,46.2,5.24,,,,,,,,,,,,
38469017,Agc France Sas Boussois,FRA,50.29,4.04,,,,,,,,,,,,
38469039,Agc Interpane Glass France Sas,FRA,49.1,6.83,,,,,,,,,,,,
38480402,Aim Groupe,FRA,48.83,-1.18,,,,,,,,,,,,
32438433,Airvault Cement Plant,FRA,46.8096469610697,-0.137694325161044,,,,,,,,,,,,
38480292,Ajinomoto Eurolysine S.A.S.,FRA,49.9,2.29,,,,,,,,,,,,
44375540,"Alizay Papier SASU, VPK Group",FRA,49.318664,1.169947,0.1791141979980468,15.2080650950023,11.711923557374966,0.0,27.099102850375314,19.798297994804845,5.703999596756998,,2.0590240362948555,0.0140987998657226,,
38480441,Alsace Lait,FRA,48.6766,7.78784,,,,,,,,,,,,
32438441,Altkirch Cement Plant,FRA,47.6288992315145,7.23699523096938,,,,,,,,,,,,
38480404,Amora Maille Si,FRA,47.3,5.13,,,,,,,,,,,,
38480225,Andros Snc,FRA,44.92,1.85,,,,,,,,,,,,
38469016,Arc France - Site D'Arques,FRA,50.74,2.31,,,,,,,,,,,,
1566816,ArcelorMittal Dunkerque steel plant,FRA,51.0379153539752,2.29612864454798,,,,,,,,,,,,
1566817,ArcelorMittal Méditerranée Fos sur Mer steel plant,FRA,43.4375430937667,4.8901339898248,,,,,,,,,,,,
38480266,Arrive S A S -St Fulgent,FRA,46.87,-1.16,,,,,,,,,,,,
1567234,Ascometal Hagondange steel plant,FRA,49.240809372545,6.15343099127801,,,,,,,,,,,,
38480445,Atelier Forezien Du Frais,FRA,45.47094,4.43575,,,,,,,,,,,,
38480456,Aubret,FRA,47.5189,-1.17623,,,,,,,,,,,,
38480437,Bahier,FRA,48.1014,0.5778,,,,,,,,,,,,
38480473,Barilla France Sas,FRA,46.45352,-1.5967,,,,,,,,,,,,
32438434,Beaucaire Cement Plant,FRA,43.8048593817398,4.62129480733381,,,,,,,,,,,,
1896776,Beffes Cement Plant,FRA,47.0833263678437,3.00304198509095,,,,,,,,,,,,
38480281,Besnier Etaux,FRA,46.06,6.26,,,,,,,,,,,,
38480335,Bestfoods France Industries,FRA,48.53,7.59,,,,,,,,,,,,
43764965,Beyrede Alumina Refinery,FRA,42.955532,0.379173,,,,,,,,,,,,
38480415,Bg,FRA,48.21,5.55,,,,,,,,,,,,
38480283,Bigard Site De Quimperlé,FRA,47.85,-3.55,,,,,,,,,,,,
38480286,Blédina,FRA,50.82,2.58,,,,,,,,,,,,
38467382,Bocahut Sas,FRA,50.12,3.92,,,,,,,,,,,,
38480471,Bonduelle Europe Long Life Estrées,FRA,49.92,2.92,,,,,,,,,,,,
38478837,Bonneterie Du Perigord 1948,FRA,45.373847,0.43333,,,,,,,,,,,,
3673061,Bouches-du-Rhône Department,FRA,43.4534567830853,5.04598396083757,,,,,,,,,,,,
38480285,Brasserie Heineken De Mons,FRA,50.64,3.1,,,,,,,,,,,,
38480502,Brasserie Kronenbourg,FRA,48.45,7.48,,,,,,,,,,,,
38480457,Bunge France Usine De Brest,FRA,48.39,-4.5,,,,,,,,,,,,
1896771,Bussac Cement Plant,FRA,45.2249442600893,-0.365913336191387,,,,,,,,,,,,
3673231,COMILOG DUNKERQUE,FRA,50.99,2.14,,,,,,,,,,,,
3673234,CONSTELLIUM NEUF BRISACH,FRA,48.05,7.53,,,,,,,,,,,,
38480294,Capdéa - Site De Marigny,FRA,48.4,3.72,,,,,,,,,,,,
38480472,Cargill France,FRA,47.28,-2.25,,,,,,,,,,,,
38480297,Cargill France Montoir,FRA,47.32,-2.14,,,,,,,,,,,,
38480385,Cargill Haubourdin Sas,FRA,50.6,2.98,,,,,,,,,,,,
38467385,Carrières Et Fours À Chaux De Dugny,FRA,49.1,5.37,,,,,,,,,,,,
38480434,Celia Laiterie De Craon,FRA,47.84,-0.94,,,,,,,,,,,,
1566818,Celsa France Boucau steel plant,FRA,43.5301640972001,-1.50035077310276,,,,,,,,,,,,
38480326,Celvia Serent,FRA,47.82,-2.49,,,,,,,,,,,,
38480428,Cf&R,FRA,45.29,3.38,,,,,,,,,,,,
38480365,Charal,FRA,47.83,-0.35,,,,,,,,,,,,
38480417,Charal Metz,FRA,49.1,6.19,,,,,,,,,,,,
38467390,Chaux De La Tour,FRA,43.35,5.19,,,,,,,,,,,,
38467389,Chaux De Provence Sacam,FRA,43.38,5.14,,,,,,,,,,,,
38467383,Chaux Et Dolomies Du Boulonnais,FRA,50.79,1.78,,,,,,,,,,,,
38467599,Cimalux S.A.,FRA,49.453006,6.012933,,,,,,,,,,,,
38478928,Cma Laboratoires,FRA,46.0565232,6.5561982,,,,,,,,,,,,
38480268,Coca Cola European Partners,FRA,48.65,2.38,,,,,,,,,,,,
38480322,Coca-Cola Production,FRA,50.93,2.42,,,,,,,,,,,,
38480447,Continental Foods Production France Sas / Liebig,FRA,43.97491,4.87317,,,,,,,,,,,,
38480400,Cooperl Arc Atlantique,FRA,48.12,-1.96,,,,,,,,,,,,
38469009,Corning Sas,FRA,48.25,2.71,,,,,,,,,,,,
32438439,Couvrot Cement Plant,FRA,48.768039436561,4.56607260048722,,,,,,,,,,,,
1896794,Crechy Cement Plant,FRA,46.2509216688512,3.42519243474326,,,,,,,,,,,,
38480425,Cristal Union Etablissement De Corbeilles,FRA,48.07,2.55,,,,,,,,,,,,
38480368,Cristal Union Site D'Arcis-Sur-Aube,FRA,48.52,4.1,,,,,,,,,,,,
38480461,Cristal Union Site De Bazancourt,FRA,49.37,4.17,,,,,,,,,,,,
38480260,Cristal Union Site De Sillery,FRA,49.19,4.14,,,,,,,,,,,,
38480480,"Cristal Union, Établissement De Sainte Emilie",FRA,49.97,3.1,,,,,,,,,,,,
38479054,De Fil En Aiguille,FRA,47.8108447,7.1657878,,,,,,,,,,,,
38470601,Deveaux Sa,FRA,46.086825,4.385688,,,,,,,,,,,,
45257071,Dombasle-sur-Meurthe Soda Ash Plant,FRA,48.628215,6.34141,,,,,,,,,,,,
38480373,Doux Frais Sas Etablissement De Boynes,FRA,48.11,2.36,,,,,,,,,,,,
38480496,Drt,FRA,43.93,-1.32,,,,,,,,,,,,
38480431,Duc,FRA,47.84,-3.69,,,,,,,,,,,,
3673056,Dunkerque aluminium plant,FRA,51.001478,2.167391,,,,,,,,,,,,
38468971,Duralex International,FRA,47.88,1.82,,,,,,,,,,,,
38480403,Eckes Granini France,FRA,46.3,4.81,,,,,,,,,,,,
38480376,Entremont,FRA,48.2,-2.06,,,,,,,,,,,,
38480387,Entremont Langres,FRA,47.87,5.37,,,,,,,,,,,,
38480239,Etablissement Daiserey,FRA,47.17,5.16,,,,,,,,,,,,
38480331,Etablissement De Bucy Le Long,FRA,49.38,3.39,,,,,,,,,,,,
38479235,Ets Boldoduc,FRA,45.8015777,4.7624637,,,,,,,,,,,,
38480391,Euralis Gastronomie - Les Herbiers,FRA,46.86,-1.02,,,,,,,,,,,,
38469048,Eurofloat,FRA,45.34,4.8,,,,,,,,,,,,
38469031,Euroglas,FRA,47.75,7.49,,,,,,,,,,,,
38469018,Eurokera,FRA,49.03,3.43,,,,,,,,,,,,
38480396,Europagro,FRA,44.92,4.91,,,,,,,,,,,,
18648347,"ExxonMobil Corp., Notre Dame",FRA,49.482646,0.56058,,,,,,,,,,,,
3673300,FERROGLOBE MANGANÈSE FRANCE,FRA,51.01,2.29,,,,,,,,,,,,
3673301,FERROGLOBE MANGANÈSE FRANCE SAS,FRA,51.0382,2.27132,,,,,,,,,,,,
3673302,FERROPEM,FRA,45.9061,5.81144,,,,,,,,,,,,
3673304,FERROPEM,FRA,45.21,6.4,,,,,,,,,,,,
3673303,FERROPEM,FRA,45.0727,5.87595,,,,,,,,,,,,
3673305,FERROPEM,FRA,45.51,6.51,,,,,,,,,,,,
3673306,FERROPEM - USINE D'ANGLEFORT,FRA,45.9,5.79,,,,,,,,,,,,
3673307,FERROPEM GROUPE FERROATLANTICA,FRA,45.2343,6.41779,,,,,,,,,,,,
44375543,Facture Biganos Pulp and Paper Mill,FRA,44.629661,-0.975188,0.0,0.0,0.0,0.0,0.0,0.0,0.0,,0.0,0.0,,
38479255,Facylities Multi Services,FRA,43.6876091,-1.2295247,,,,,,,,,,,,
38480423,Findus France S.A.S.,FRA,50.72,1.6,,,,,,,,,,,,
38467386,Fours À Chaux De Sorcy,FRA,48.71,5.66,,,,,,,,,,,,
38480298,Fromagerie Bel Production France,FRA,48.15,-0.38,,,,,,,,,,,,
38480406,Fromageries Bel Production France,FRA,46.67,5.55,,,,,,,,,,,,
38480398,Fruival,FRA,44.87,4.88,,,,,,,,,,,,
38480446,Galliance Ancenis,FRA,47.3837,-1.17943,,,,,,,,,,,,
38480284,Gatine Viandes,FRA,47.94,-1.24,,,,,,,,,,,,
38480316,Geo,FRA,48.52,1.85,,,,,,,,,,,,
38480438,Gie Chardonneuse,FRA,49.41214,4.48862,,,,,,,,,,,,
44375544,Golbey Pulp and Paper Mill,FRA,48.210464,6.425649,0.0750758150821461,5.334885898044486,11.469136622345324,0.0,16.879098335471955,25.69520654704277,11.952509838445442,,0.8844967435716815,,,
38480229,Groupe Bigard,FRA,50.12,3.92,,,,,,,,,,,,
3673059,Haute-Savoie Department,FRA,46.0528010723965,6.43610560561344,,,,,,,,,,,,
3673060,Hautes-Pyrénées Department,FRA,43.052841576858,0.163743829513876,,,,,,,,,,,,
38480224,Heineken Schiltigheim,FRA,48.61,7.74,,,,,,,,,,,,
32438430,Heming Cement Plant,FRA,48.6895548370077,6.96471791800295,,,,,,,,,,,,
38480390,Herbignac Cheese Ingredients,FRA,47.44,-2.31,,,,,,,,,,,,
38468976,Holophane,FRA,49.24,1.42,,,,,,,,,,,,
38480383,Houdebine,FRA,48.06,-2.89,,,,,,,,,,,,
731832,"INEOS, Lavera ",FRA,43.385041,5.020815,,,,,,,,,,,,
38480337,Ingredia,FRA,50.38,2.34,,,,,,,,,,,,
38480442,Isigny Ste Mere,FRA,49.3214,-1.0944,,,,,,,,,,,,
38469032,Isover St Gobain,FRA,46.81509,4.85775,,,,,,,,,,,,
38480459,Johanna Mesnage,FRA,43.67608,-1.26038,,,,,,,,,,,,
38468994,Keraglass,FRA,48.22,2.7,,,,,,,,,,,,
38480366,Kermene,FRA,48.27,-2.48,,,,,,,,,,,,
38480327,Kervalis Armor,FRA,48.19,-2.3,,,,,,,,,,,,
38468996,Knauf Insulation,FRA,43.11,0.39,,,,,,,,,,,,
38480332,L.N.U.F. Bayeux,FRA,49.25,-0.66,,,,,,,,,,,,
3673406,LIBERTY ALUMINIUM DUNKERQUE,FRA,51.0011,2.22,,,,,,,,,,,,
1566819,LME Trith-Saint-Léger steel plant,FRA,50.3296624712834,3.49071554934068,,,,,,,,,,,,
32438452,La Grave de Peille Cement Plant,FRA,43.7935736811719,7.37404295259079,,,,,,,,,,,,
32438450,La Malle Cement Plant,FRA,43.4197545902786,5.38636682479847,,,,,,,,,,,,
38480433,Labeyrie,FRA,43.48,-1.09,,,,,,,,,,,,
38480418,Labeyrie Sa - St Geours De Maremne,FRA,43.68,-1.23,,,,,,,,,,,,
38467391,Lafarge Platres,FRA,49.37,1.99,,,,,,,,,,,,
38480432,Laitiere De Lhermitage (Ste),FRA,48.12,-1.81,,,,,,,,,,,,
38480364,Ldc Aquitaine,FRA,44.44,-0.21,,,,,,,,,,,,
45257130,Le Havre Fertilizers,FRA,49.480361,0.2063795,,,,,,,,,,,,
38479995,Lelabplus,FRA,48.8148054,2.3762613,,,,,,,,,,,,
38480454,Les Ateliers Du Gout Usine D'Offranville,FRA,49.8667,1.04456,,,,,,,,,,,,
38467387,Lhoist France Ouest,FRA,48.15,-0.38,,,,,,,,,,,,
38467384,Lhoist France Ouest Usine Des Gaillards,FRA,46.64,1.43,,,,,,,,,,,,
38480280,Lionor Sa,FRA,50.67,2.48,,,,,,,,,,,,
38480287,Lnuf Marques - Usine De Cuincy,FRA,50.37,3.03,,,,,,,,,,,,
38480378,Lnuf Sarrebourg,FRA,48.73,7.04,,,,,,,,,,,,
1896760,Lumbres Cement Plant,FRA,50.6991692835713,2.11383174305378,,,,,,,,,,,,
38480370,Madrange Charcuterie De La Valoine,FRA,45.85,1.24,,,,,,,,,,,,
38480369,Malterie Soufflet,FRA,49.43,1.01,,,,,,,,,,,,
38469049,Manufacture De Baccarat,FRA,48.44,6.74,,,,,,,,,,,,
1567252,Marcegaglia Fos Sur Mer steel plant,FRA,43.445004,4.846805,,,,,,,,,,,,
38480328,Marcillat Corcieux,FRA,48.16,6.88,,,,,,,,,,,,
38480236,Marie,FRA,46.78,0.19,,,,,,,,,,,,
38480234,Mars Chocolat France,FRA,48.76,7.41,,,,,,,,,,,,
38480503,Mars Pf France,FRA,48.56,7.56,,,,,,,,,,,,
38480254,Mars Pf France,FRA,47.88,2.15,,,,,,,,,,,,
32438447,Martres Tolosane Cement Plant,FRA,43.1852311576391,0.989726481287795,,,,,,,,,,,,
38480448,Materne Sas,FRA,50.00938,3.69036,,,,,,,,,,,,
38480052,Matis,FRA,48.9137204,2.3978562,,,,,,,,,,,,
38480410,Mccain Alimentaire,FRA,50.45,2.9,,,,,,,,,,,,
44375545,"Mimizan Pulp and Paper Mill, Paper Bags",FRA,44.207946,-1.249265,0.5614553281058516,0.9215435054893344,10.198646257566445,0.0006449114379882812,11.682290002599618,26.98506615431316,3.9172276820621263,,3.609396591658049,0.0,,
38480421,Mondelez France Biscuits Production Sas,FRA,44.72,-0.72,,,,,,,,,,,,
38480392,Mondelez International,FRA,47.16,-1.4,,,,,,,,,,,,
38480443,Mont Blanc Sas,FRA,49.3774,-1.35102,,,,,,,,,,,,
1896796,Montalieu Cement Plant,FRA,45.8045639393394,5.42064211284073,,,,,,,,,,,,
38480374,Moy Park Beef Orléans,FRA,47.93,1.91,,,,,,,,,,,,
38480257,Nestle France Sas,FRA,49.3,4.74,,,,,,,,,,,,
38480293,Nestle Purina Petcare France S.A.S.,FRA,49.88,2.47,,,,,,,,,,,,
45257225,Novacarb Chemical Plant,FRA,48.6408066564233,6.26751522259408,,,,,,,,,,,,
38480338,Novandie,FRA,50.66,1.91,,,,,,,,,,,,
38480405,Novandie,FRA,49.47,1.03,,,,,,,,,,,,
38469029,O-I Manufactruing France Vayres,FRA,44.89,-0.32,,,,,,,,,,,,
38469023,O-I Manufacturing France - Usine De Puy-Guillaume,FRA,45.96,3.49,,,,,,,,,,,,
38469019,O-I Manufacturing Wingles,FRA,50.49,2.85,,,,,,,,,,,,
38468997,Ocv Chambery(Usine B),FRA,45.58,5.9,,,,,,,,,,,,
38469030,Oi Manufacturing France,FRA,43.34,3.23,,,,,,,,,,,,
38469025,Oi Manufacturing France Reims,FRA,49.25,4.04,,,,,,,,,,,,
38469026,Oi Manufacturing France Usine De Labegude,FRA,44.64,4.35,,,,,,,,,,,,
38469028,Oi Manufacturing Gironcourt,FRA,48.3,5.93,,,,,,,,,,,,
38469027,Oi Manufacturing Usine De Veauche,FRA,45.56,4.28,,,,,,,,,,,,
38468995,Oi Vergèze,FRA,43.73,4.23,,,,,,,,,,,,
38480440,Orangina Suntory France Production,FRA,43.92994,4.95119,,,,,,,,,,,,
38480397,Orangina Suntory France Production,FRA,47.91,2.1,,,,,,,,,,,,
45257159,Ottmarsheim Fertilizers,FRA,47.7959398,7.5227782,,,,,,,,,,,,
38480444,Ouest Boulangere,FRA,46.8608,-1.0311,,,,,,,,,,,,
38480371,Pomly,FRA,49.19,3.29,,,,,,,,,,,,
32438448,Port-la-nouvelle Cement Plant,FRA,43.0245982644546,3.02897919382947,,,,,,,,,,,,
38480319,Procanar,FRA,47.61,-2.55,,,,,,,,,,,,
38480275,Raffinage Tereos,FRA,47.23,-1.54,,,,,,,,,,,,
42546293,Ranville Cement Plant,FRA,49.2235422332963,-0.275274722178421,,,,,,,,,,,,
38480384,Raynal & Roquelaure,FRA,44.55,2.06,,,,,,,,,,,,
38480315,Raynal & Roquelaure Provence,FRA,44.15,4.88,,,,,,,,,,,,
44375542,Rayonier Advanced Materials,FRA,43.8313896,-0.826609,0.016874824645996,16.9611569150618,11.49704654642023,0.001297744934082,28.476376031062106,27.27636530371769,1.9763303120751476,,0.099955399230957,0.0051922115478515,,
38480469,Refresco France (Site Delifruits),FRA,45.131,5.0259,,,,,,,,,,,,
38480463,Refresco France - Site De Nuits Saint Georges,FRA,47.14,4.93,,,,,,,,,,,,
38480271,Regie Municipale De L'Abattoir De Saint Gaudens,FRA,43.12,0.73,,,,,,,,,,,,
1566824,Riva Alpa Gargenville steel plant,FRA,48.983195308853,1.76325542037889,,,,,,,,,,,,
1566823,Riva Iton Seine Bonnieres Sur Seine steel plant,FRA,49.0337796764881,1.56183857091449,,,,,,,,,,,,
1566821,Riva Sam Montereau steel plant,FRA,48.3866224789841,2.98110974988391,,,,,,,,,,,,
1566822,Riva Sam Neuves-Maisons steel plant,FRA,48.6107677029549,6.11436636691629,,,,,,,,,,,,
32438432,Rochefort sur nenon Cement Plant,FRA,47.1350083626925,5.55197632740955,,,,,,,,,,,,
38480325,Rohan Viandes Elaboration,FRA,48.03,-2.76,,,,,,,,,,,,
38480467,Roquette Freres Site De Beinheim,FRA,48.85,8.09,,,,,,,,,,,,
38480409,Roquette Frères,FRA,49.37,3.09,,,,,,,,,,,,
38480424,Roquette Site De Lestrem,FRA,50.61,2.67,,,,,,,,,,,,
38468965,Sa  Alphaglass,FRA,50.719,2.312,,,,,,,,,,,,
38480321,Sa Doux Frais Pleucadeuc,FRA,47.76,-2.38,,,,,,,,,,,,
1566820,Saarstahl Ascoval Saint-Saulve steel plant,FRA,50.3979674312347,3.56106388354786,,,,,,,,,,,,
44375546,Saillat-sur-Vienne Pulp and Paper Mill,FRA,45.876393,0.817428,0.0188004873046875,8.124606216799029,16.178946830200434,0.0,24.32235353430415,16.666408579021617,1.4837506416649917,,0.8579002443069758,,,
44375547,Saint Gaudens Pulp Mill,FRA,43.096501,0.726795,0.0282457760620117,11.271895674767825,12.94980336550077,0.0,24.249944816330604,8.249888029939534,5.960657336980362,,0.2633916433105469,,,
38469015,Saint Gobain Glass France,FRA,50.31,3.25,,,,,,,,,,,,
38469036,Saint Gobain Glass France,FRA,49.47,2.88,,,,,,,,,,,,
38468980,Saint Gobain Isover,FRA,47.22,-0.73,,,,,,,,,,,,
38480468,Saint Louis Sucre,FRA,49.73,3.04,,,,,,,,,,,,
38480237,Saint Louis Sucre Établissement Nord Est,FRA,49.41,3.94,,,,,,,,,,,,
1896787,Saint Pierre La Cour Cement Plant,FRA,48.1094953025611,-1.03568284454989,,,,,,,,,,,,
32438454,Saint-Égrève Cement Plant,FRA,45.2306957083024,5.6692271832654,,,,,,,,,,,,
38480295,Saipol,FRA,48.51,3.44,,,,,,,,,,,,
38480465,Saipol,FRA,45.82,3.38,,,,,,,,,,,,
38480296,Saipol,FRA,49.92,1.08,,,,,,,,,,,,
38480487,Saipol,FRA,49.356194,0.988808,,,,,,,,,,,,
38480464,Saipol,FRA,44.9,-0.52,,,,,,,,,,,,
38480466,Saipol Etablissement De Sète,FRA,43.39,3.64,,,,,,,,,,,,
38480255,Sas Entremont,FRA,47.8,-2.38,,,,,,,,,,,,
38480422,Saupiquet,FRA,47.99,-4.09,,,,,,,,,,,,
38469033,Saverglass,FRA,49.64,1.84,,,,,,,,,,,,
38480427,Saviel France,FRA,45.07,4.85,,,,,,,,,,,,
3673058,Savoie Department,FRA,45.4775948641877,6.44631728845386,,,,,,,,,,,,
38480300,Seretram,FRA,43.55,-0.99,,,,,,,,,,,,
38469022,Sgd Usine De Sucy En Brie,FRA,48.76,2.53,,,,,,,,,,,,
38480336,Sica Pulpe De Boiry,FRA,50.2,2.74,,,,,,,,,,,,
38480382,Sicarev,FRA,46.04,4.07,,,,,,,,,,,,
38467581,"Siniat, Usine De Ottmarsheim",FRA,47.7871,7.50118,,,,,,,,,,,,
38480372,Snc Canelia Rouvroy Poudre,FRA,49.78,4.5,,,,,,,,,,,,
38480458,Societe Beurriere De Retiers,FRA,47.9065,-1.3923,,,,,,,,,,,,
38480288,Societe Canelia Petit-Fayt Beurre,FRA,50.1,3.82,,,,,,,,,,,,
38480279,Societe D'Exploitation De La Chaine D'Abattage Hazebrouck (Sarl),FRA,50.72,2.53,,,,,,,,,,,,
38480436,Societe Fromagere Besnier,FRA,47.1818,6.40016,,,,,,,,,,,,
38480299,Societe Fromagere De Charchigne,FRA,48.41,-0.4,,,,,,,,,,,,
38480290,Societe Fromagere De Clecy,FRA,48.9,-0.49,,,,,,,,,,,,
38480408,Societe Fromagere De Pontivy,FRA,48.03,-2.99,,,,,,,,,,,,
38480269,Societe Fromagere De Rodez,FRA,44.38,2.55,,,,,,,,,,,,
38480220,Societe Industrielle De Saint Florent,FRA,47.360702,-1.006422,,,,,,,,,,,,
38480389,Societe Lactalis Nestle Ultra-Frais Laval,FRA,48.06,-0.76,,,,,,,,,,,,
38480330,Societe Laitiere De Mayenne,FRA,48.3,-0.61,,,,,,,,,,,,
38480395,Societe Laitiere De Pontivy,FRA,48.07,-2.97,,,,,,,,,,,,
38480253,Societe Laitiere De Retiers,FRA,47.9,-1.34,,,,,,,,,,,,
18648350,"Societe du Craqueur de L' Aubette SCA , Berre l'etang ",FRA,43.495268,5.171751,,,,,,,,,,,,
38480401,Société De Transformation Des Volailles De L'Ouest,FRA,47.53,-1.19,,,,,,,,,,,,
38480379,Société Fromagère De Bouvron,FRA,47.41,-1.87,,,,,,,,,,,,
38480291,Société Fromagère De Domfront,FRA,48.58,-0.61,,,,,,,,,,,,
38480386,Société Fromagère De Riblaire,FRA,46.89,-0.22,,,,,,,,,,,,
38480329,Société Fromagère De Xertigny,FRA,48.03,6.38,,,,,,,,,,,,
38480439,Sodebo,FRA,46.9603,-1.30667,,,,,,,,,,,,
38480494,Sofivo,FRA,48.43,-1.06,,,,,,,,,,,,
38480274,Soga,FRA,43.65,0.57,,,,,,,,,,,,
38480413,Somafer,FRA,46.1,1.36,,,,,,,,,,,,
38480228,Source Badoit,FRA,45.6,4.31,,,,,,,,,,,,
38480227,Sovivo Sarl,FRA,43.72,1.4,,,,,,,,,,,,
3673057,St. Jean de Maurienne aluminium plant,FRA,45.270336,6.374953,,,,,,,,,,,,
38480449,Sté Fromagère D'Orbec,FRA,49.0148,0.40928,,,,,,,,,,,,
38469020,Stölzle Masnières Parfumerie,FRA,50.1,3.2,,,,,,,,,,,,
38480416,Sundeshy - Site De Francheville,FRA,48.87,4.54,,,,,,,,,,,,
38480256,Sva Jean Rozé,FRA,48.11,-1.19,,,,,,,,,,,,
38480324,Sva Jean Rozé,FRA,48.2,-1.51,,,,,,,,,,,,
3673504,TRIMET,FRA,45.2767,6.35903,,,,,,,,,,,,
3673508,TRIMET FRANCE SAS,FRA,45.27,6.34,,,,,,,,,,,,
44375548,Tarascon Pulp Mill,FRA,43.780612,4.652488,0.3993732730040306,21.457669677575428,13.578524509799376,2.5247818731342395,37.96034933351307,12.237015290406452,9.431686493772014,,0.1336822107637293,0.0045463448486328,,
38480430,Tereos,FRA,49.34,2.67,,,,,,,,,,,,
38480426,Tereos France Origny-Sainte-Benoîte,FRA,49.82,3.52,,,,,,,,,,,,
38480252,Tereos France Site D'Artenay,FRA,48.07,1.87,,,,,,,,,,,,
38480367,Tereos Nutrition Animale - Site D'Aulnay Aux Planches,FRA,48.82,3.96,,,,,,,,,,,,
38480261,Tereos Nutrition Animale Site D'Allemanche,FRA,48.6,3.79,,,,,,,,,,,,
38480262,Tereos Nutrition Animale Site De Montépreux,FRA,48.7,4.12,,,,,,,,,,,,
38480264,Tereos Nutrition Animale Site De Pleurs,FRA,48.69,3.87,,,,,,,,,,,,
38480460,Tereos Starch & Sweeteners Europe Sas,FRA,49.77,2.91,,,,,,,,,,,,
38480399,Tereos Sucrerie D'Escaudoeuvres,FRA,50.19,3.27,,,,,,,,,,,,
38480462,Tereos Sucrerie De Connantre,FRA,48.73,3.91,,,,,,,,,,,,
38480411,Tereos Sucrerie De Lillers,FRA,50.56,2.48,,,,,,,,,,,,
38480223,Tereos Syral,FRA,48.14,7.56,,,,,,,,,,,,
38467580,Tereos- Etablissement D'Attin,FRA,50.46,1.77,,,,,,,,,,,,
38480419,Tereos- Etablissement D'Attin,FRA,50.46,1.77,,,,,,,,,,,,
18648346,"TotalEnergies Feyzin, Feyzin ",FRA,45.676455,4.843179,,,,,,,,,,,,
18648351,"TotalEnergies Petrochemicals , Gonfreville l'orcher ",FRA,49.480363,0.215365,,,,,,,,,,,,
38469034,Tourres & Cie,FRA,49.49,0.13,,,,,,,,,,,,
3673544,USINE DES CLAVAUX,FRA,45.09,5.91,,,,,,,,,,,,
3673543,USINE DES CLAVAUX,FRA,45.09,5.91,,,,,,,,,,,,
38480394,Ucdv (Usines Coopératives De Déshydratation Du Vexin),FRA,49.31,1.5,,,,,,,,,,,,
38480453,Ucdv (Usines Coopératives De Déshydratation Du Vexin),FRA,49.31199,1.50837,,,,,,,,,,,,
38480412,Union Laitiere Des Deux-Sevres (Ulds),FRA,46.47,-0.38,,,,,,,,,,,,
38480455,Union Laitiere Vitteloise - Fromagerie De L'Ermitage,FRA,48.20434,5.8231,,,,,,,,,,,,
38478490,"Union Textile De
Tourcoing",FRA,50.7366713,3.1506612,,,,,,,,,,,,
38469041,Ursa France,FRA,49.12,6.71,,,,,,,,,,,,
38469035,Usine De Guimerville,FRA,49.87,1.69,,,,,,,,,,,,
38469010,Usine De L'Ardoise,FRA,44.1,4.66,,,,,,,,,,,,
38480450,Usine Du Chancet,FRA,45.8711,3.03981,,,,,,,,,,,,
32438446,Val dAzergues Cement Plant,FRA,45.8661401302062,4.65919169801848,,,,,,,,,,,,
38469038,Verallia,FRA,45.55,4.13,,,,,,,,,,,,
38469021,Verallia,FRA,45.69,-0.33,,,,,,,,,,,,
38469024,Verallia - Usine De Chalon Sur Saône,FRA,46.79,4.85,,,,,,,,,,,,
38469037,Verallia France Usine De Lagnieu,FRA,45.89,5.32,,,,,,,,,,,,
38468960,Verallia Verrerie De Oiry,FRA,49.018726,4.038137,,,,,,,,,,,,
38468961,Verallia-Vauxrot,FRA,49.4,3.32,,,,,,,,,,,,
38469040,Verescence France Sas - Usine De Mers,FRA,50.05,1.37,,,,,,,,,,,,
38469011,Verreries Brosse Sas,FRA,49.83,1.7,,,,,,,,,,,,
18648349,"Versalis France SAS, Dunkerque ",FRA,51.026972,2.243242,,,,,,,,,,,,
32438438,Villiers-au-Bouin Cement Plant,FRA,47.5884855290444,0.328987361156791,,,,,,,,,,,,
38480470,Viol - Castel Viandes,FRA,47.708,-1.3789,,,,,,,,,,,,
32438445,Viviers le Teil Cement Plant,FRA,44.5209793133477,4.68968031784091,,,,,,,,,,,,
38468962,Voa - Verrrerie D'Albi,FRA,43.92,2.14,,,,,,,,,,,,
44375541,"WEPA Greenfield SAS, WEPA Group",FRA,49.0330112,3.3935335,0.0064963063964843,22.608772971487262,5.120395977837057,0.0,27.735665255720804,13.381775455796422,4.78421804242398,,0.6973558507745481,,,
38480407,William Saurin Production,FRA,48.86,2.67,,,,,,,,,,,,
32438455,Xeuilley Cement Plant,FRA,48.5634345960459,6.10790545544433,,,,,,,,,,,,
38480429,Ysco France,FRA,48.73,-0.01,,,,,,,,,,,,
38481213,1Stop Halal Ltd - Eye ,GBR,52.320558,1.142395,,,,,,,,,,,,
38495260,2  Sisters  Food Group  -  Thetford,GBR,52.40902029999999,0.7262128,,,,,,,,,,,,
38495259,2 Sisters Food Group Sandycroft,GBR,53.1984482,-3.0051422,,,,,,,,,,,,
38480930,"2 Sisters Poultry Limited, Coupar Angus",GBR,56.543717,-3.271408,,,,,,,,,,,,
38481111,A B P Guildford,GBR,51.260956,-0.57123,,,,,,,,,,,,
32438458,Aberthaw Cement Plant,GBR,51.3970746819116,-3.39153945775675,,,,,,,,,,,,
38481188,Abp Langport,GBR,51.032406,-2.816249,,,,,,,,,,,,
38472010,Abraham  Moon And  Sons  Ltd,GBR,53.8784082,-1.7175576,,,,,,,,,,,,
38481082,Accolade Park,GBR,51.5173,-2.68868,,,,,,,,,,,,
38473734,Advanced Processing Limited,GBR,53.759196,-1.87378,,,,,,,,,,,,
38478481,Albert Thurston Ltd.,GBR,52.6417254,-1.1430998,,,,,,,,,,,,
38481229,Albion Mills Confectionery Plant ,GBR,53.720247,-1.85238,,,,,,,,,,,,
38469344,Allied Glass - Knottingley Site,GBR,53.7087,-1.23149,,,,,,,,,,,,
38469310,Allied Glass Knottingley,GBR,53.708347,-1.231362,,,,,,,,,,,,
38478614,Alpha Designs Upholstery Ltd,GBR,52.5607045,-2.0575099,,,,,,,,,,,,
38477033,Ample Fabrics (New),GBR,52.6602093,-1.0780421,,,,,,,,,,,,
38481086,"Anglo Beef Processors Limited, Abp Shrewsbury",GBR,52.7422,-2.7234,,,,,,,,,,,,
38481122,Anglo Beef Processors Uk,GBR,56.42002,-3.47602,,,,,,,,,,,,
38469302,Ardagh Glass (Worksop) Ltd,GBR,53.3137,-1.1379,,,,,,,,,,,,
38469338,Ardagh Glass Barnsley,GBR,53.570386,-1.438929,,,,,,,,,,,,
38469301,Ardagh Glass Barnsley,GBR,53.5663,-1.45464,,,,,,,,,,,,
38469345,Ardagh Glass Headlands,GBR,53.7025,-1.25187,,,,,,,,,,,,
38469349,Ardagh Glass Wheatley,GBR,53.55234,-1.085694,,,,,,,,,,,,
38469295,"Ardagh Glass, Portland Place, Irvine",GBR,55.60804,-4.675222,,,,,,,,,,,,
38480926,"Arla Foods Ltd, Lockerbie",GBR,55.119781,-3.406614,,,,,,,,,,,,
38481118,"Arla Foods Ltd, Romanby Dairy",GBR,54.335517,-1.443717,,,,,,,,,,,,
38481156,Armaghdown Creameries Ltd,GBR,54.3433,-6.2592,,,,,,,,,,,,
38480920,Ballyrashane Creamery,GBR,55.1422,-6.6044,,,,,,,,,,,,
38481219,Batley Pet Foods,GBR,53.743377,-1.650491,,,,,,,,,,,,
38469341,Beatson Clark Plc,GBR,53.435937,-1.360394,,,,,,,,,,,,
45257256,Billingham Fertilizers,GBR,54.5943025,-1.2918619,,,,,,,,,,,,
38480893,Birdseye Lowestoft,GBR,52.482772,1.759434,,,,,,,,,,,,
38481108,Bournville Chocolate Works ,GBR,52.417173,-1.930276,,,,,,,,,,,,
38480991,Bridge Road Food Factory,GBR,52.778,0.146746,,,,,,,,,,,,
38477191,Bristow Paul Associates,GBR,53.045,-2.9220439,,,,,,,,,,,,
38477192,Britannia Garment Packaging (Uk),GBR,52.60781009999999,-1.1940037,,,,,,,,,,,,
38472458,British Millerain,GBR,53.6297762,-2.1442595,,,,,,,,,,,,
1566826,British Steel Scunthorpe plant,GBR,53.5793660305166,-0.611727226879383,,,,,,,,,,,,
38481143,"British Sugar Plc, York Sugar Factory",GBR,53.970418,-1.12296,,,,,,,,,,,,
38474173,Brunel Healthcare Manufacturing Limited,GBR,52.7733394,-1.5732646,,,,,,,,,,,,
38481178,Bulmer Cider Mills ,GBR,52.059558,-2.72764,,,,,,,,,,,,
38474176,Buoyant Upholstery Ltd,GBR,53.8381455,-2.1955534,,,,,,,,,,,,
38480950,Burton Brewery,GBR,52.8068,-1.63549,,,,,,,,,,,,
38480888,Bury St Edmunds Sugar Factory ,GBR,52.253727,0.726918,,,,,,,,,,,,
38481114,"Cadbury Ltd, Ctb Confectionery Somerdale",GBR,51.422212,-2.494982,,,,,,,,,,,,
38480921,"Cameronbridge Dist, Windygates, Leven",GBR,56.189663,-3.05486,,,,,,,,,,,,
38481154,"Campbell Grocery Products Limited, Campbells, Kings Lynn",GBR,52.739603,0.411222,,,,,,,,,,,,
38481075,Campbells Of Worksop ,GBR,53.3187,-1.14026,,,,,,,,,,,,
38480958,Cannington Creamery,GBR,51.1444,-3.07497,,,,,,,,,,,,
38480885,Cantley Sugar Factory,GBR,52.575675,1.520238,,,,,,,,,,,,
38480884,Carlisle Biscuit Factory,GBR,54.894576,-2.949515,,,,,,,,,,,,
38481225,Castill Laithe Abattoir,GBR,53.920101,-2.308764,,,,,,,,,,,,
32438467,Cauldon Cement Plant,GBR,53.0455362637212,-1.87899385711747,,,,,,,,,,,,
38481116,"Cavaghan & Gray Group Ltd, Leeming Bar Meat Processing Unit",GBR,54.30411,-1.565083,,,,,,,,,,,,
38480963,Cemetery Road Pizza And Pies Wm,GBR,53.8845,-1.37198,,,,,,,,,,,,
38476856,Chartwell Global Ltd  T/A Dye Hard,GBR,52.6325729,-1.0929973,,,,,,,,,,,,
38481071,"Cherry Valley Farms Ltd, Caistor Poultry Processors",GBR,53.498635,-0.330995,,,,,,,,,,,,
38481206,Chesterfield Poultry Slaughterhouse ,GBR,53.614975,-0.949697,,,,,,,,,,,,
38481222,"Chilled Food Manufacturing Unit, Market Drayton",GBR,52.905331,-2.484816,,,,,,,,,,,,
38480949,Coca Cola - Edmonton ,GBR,51.6151,-0.045801,,,,,,,,,,,,
38480868,Coca-Cola - Wakefield ,GBR,53.718669,-1.52265,,,,,,,,,,,,
38476917,Colour Works Ltd,GBR,52.6451202,-1.1101129,,,,,,,,,,,,
38481072,Consett ,GBR,55.2772,-1.83485,,,,,,,,,,,,
38481119,"Convenience Foods Limited, Turnpike Close Food Factory - Grantham",GBR,52.901094,-0.667015,,,,,,,,,,,,
38480943,"Cooked Meat Plant, Kings Lynn",GBR,52.7331,0.408492,,,,,,,,,,,,
32438466,Cookstown Cement Plant,GBR,54.6193708247158,-6.76822753602504,,,,,,,,,,,,
38481140,"Coors Brewers Ltd, Alton Brewery",GBR,51.148544,-0.972319,,,,,,,,,,,,
38481139,"Coors Brewers Ltd, Shobnall Maltings",GBR,52.815581,-1.629337,,,,,,,,,,,,
38469312,Cowley Hill Works,GBR,53.461,-2.73705,,,,,,,,,,,,
38469322,Cowley Hill Works,GBR,53.463676,-2.73624,,,,,,,,,,,,
38481081,Cranswick Convenience Foods Limited,GBR,53.7755,-0.33686,,,,,,,,,,,,
38480994,Cranswick Country Foods (Ballymena),GBR,54.8822,-6.3467,,,,,,,,,,,,
38481090,Cranswick Country Foods (Lazenby'S) ,GBR,54.1431,-0.321244,,,,,,,,,,,,
38495264,Cranswick Country Foods (Norfolk),GBR,52.5708328,0.8101433,,,,,,,,,,,,
38481199,Cranswick Country Foods (Norfolk) ,GBR,52.568875,0.805765,,,,,,,,,,,,
38480879,Crisp Maltings,GBR,52.808299,0.90115,,,,,,,,,,,,
38481058,Crown Farm,GBR,52.3684,1.30375,,,,,,,,,,,,
38480957,"Dairy Crest Ltd, Aintree Dairy, Liverpool",GBR,53.4585,-2.94669,,,,,,,,,,,,
38481121,"Dairy Farmers Of Britain Ltd, Blaydon Dairy",GBR,54.965763,-1.699166,,,,,,,,,,,,
38481153,"Dairy Farmers Of Britain Ltd, Lincoln Dairy",GBR,53.21854,-0.552939,,,,,,,,,,,,
38480995,Dale Farm Ltd (Dromona),GBR,54.9013,-6.3605,,,,,,,,,,,,
38481062,Dale Farm Ltd (Dunmanbridge),GBR,54.6636,-6.7175,,,,,,,,,,,,
38480996,Dale Farm Ltd (Pennybridge),GBR,54.8522,-6.2511,,,,,,,,,,,,
38480875,Danish Crown Bugle ,GBR,50.408489,-4.765986,,,,,,,,,,,,
38472855,Danish Design Pet Products Ltd,GBR,53.8660103,-1.6914174,,,,,,,,,,,,
38480894,Davidstow Creamery,GBR,50.649567,-4.63356,,,,,,,,,,,,
38481201,Dawn Cardington  ,GBR,52.128888,-0.412164,,,,,,,,,,,,
38480941,"Delico Ltd, Delico Limited",GBR,51.9889,-0.790967,,,,,,,,,,,,
38481126,Dial Lane Meat Packing Facility Epr/Jp3433Wu,GBR,52.533064,-2.018974,,,,,,,,,,,,
38481084,Dolwen Abattoir,GBR,52.4571,-3.48018,,,,,,,,,,,,
38480945,Dovecote Park Abattoir Stapleton ,GBR,53.673,-1.23511,,,,,,,,,,,,
38480952,Dowlais Slaughterhouse,GBR,51.7701,-3.33485,,,,,,,,,,,,
1896810,Dunbar Cement Plant,GBR,55.9788143617116,-2.46922987075568,,,,,,,,,,,,
38480915,Dunbia Dungannon,GBR,54.4886,-6.8061,,,,,,,,,,,,
38481095,Dunhills (Pontefract) Plc,GBR,53.691956,-1.316527,,,,,,,,,,,,
38475580,Dye Point Ltd,GBR,52.63743669999999,-1.0979432,,,,,,,,,,,,
38481094,East Hortonwood Abattoir ,GBR,52.723152,-2.473302,,,,,,,,,,,,
38480986,Eastern Way Food Factory,GBR,54.8817,-2.9065,,,,,,,,,,,,
38480944,Easton Food Processors,GBR,52.8305,-0.607133,,,,,,,,,,,,
38469342,Eggbrough Site,GBR,53.7056,-1.13882,,,,,,,,,,,,
38475617,Elite Styles Inc Ltd,GBR,52.6321395,-1.0996403,,,,,,,,,,,,
38473099,Elms Marketing Ltd,GBR,53.271558,-2.1127003,,,,,,,,,,,,
38469292,Encirc Ltd.,GBR,54.1592,-7.5844,,,,,,,,,,,,
38477263,Endura Ltd,GBR,55.890747,-3.5780024,,,,,,,,,,,,
38479204,Equip Outdoor Technologies Uk Ltd.,GBR,53.084068,-1.366021,,,,,,,,,,,,
38480947,Erith Oil Works ,GBR,51.4926,0.167927,,,,,,,,,,,,
38481120,"Esca Food Solutions Ltd, Milton Keynes Meat Processing Facility",GBR,52.049512,-0.707958,,,,,,,,,,,,
38479227,Esmie Ltd,GBR,51.0965894,-0.4539199,,,,,,,,,,,,
18648379,"ExxonMobil Chemical Co. , Mossmorran Fife",GBR,56.093287,-3.313367,,,,,,,,,,,,
38481060,F A Gill Ltd,GBR,52.5664,-2.11473,,,,,,,,,,,,
38481134,"Faccenda Group Limited, Faccenda Sutton Benger",GBR,51.50784,-2.081372,,,,,,,,,,,,
38480961,Fengate Dairy ,GBR,52.5718,-0.211462,,,,,,,,,,,,
38469317,Fibre Glass Wigan  ,GBR,53.5179,-2.5497,,,,,,,,,,,,
38479885,Filmod,GBR,55.378051,-3.435973,,,,,,,,,,,,
38480988,Flixton Poultry Processors,GBR,52.4227,1.39519,,,,,,,,,,,,
3673062,Fort William aluminium plant,GBR,56.828168,-5.075296,,,,,,,,,,,,
38481036,"Freemans Of Newent, Town Farm",GBR,51.9291,-2.39438,,,,,,,,,,,,
38481194,Fulney Lane Meat Processing Unit - Spalding,GBR,52.795614,-0.126055,,,,,,,,,,,,
38477358,Future Fabrics Ltd,GBR,51.6500029,-0.0259751,,,,,,,,,,,,
38481052,"G Wood And Sons Ltd , Baulker Lane Clipstone Abattoir",GBR,53.166341,-1.104731,,,,,,,,,,,,
33999241,GBR-Stockton-on-Tees_ammonia,GBR,54.5630516937368,-1.32997994510473,,,,,,,,,,,,
1567273,GFG Liberty Steel Newport plant,GBR,51.557289,-2.962704,,,,,,,,,,,,
1566828,GFG Liberty Steel Rotherham plant,GBR,53.4502732344451,-1.32312304007683,,,,,,,,,,,,
38477412,Gill Design Studio,GBR,52.6327479,-1.1453998,,,,,,,,,,,,
38481037,Ginsters Callington,GBR,50.5047,-4.30421,,,,,,,,,,,,
38481024,Gipping Road Poultry Processors Great Blakenham ,GBR,52.1098,1.10432,,,,,,,,,,,,
38481006,"Girvan Dist, Grangestone Ind Est, Girvan",GBR,55.2607,-4.83221,,,,,,,,,,,,
38480918,Glanbia Cheese Ltd,GBR,54.4636,-6.249,,,,,,,,,,,,
38481209,Goodwin Road ,GBR,52.513452,-0.692774,,,,,,,,,,,,
38481113,Grampian Country Pork Limited,GBR,53.495427,-2.07655,,,,,,,,,,,,
38481125,"Grampian Country Pork Limited, Wiveliscombe Pork Processing",GBR,51.040367,-3.30606,,,,,,,,,,,,
38480946,Grantham Poultry Processing Plant,GBR,52.9219,-0.65299,,,,,,,,,,,,
38481012,"Greencore Grocery, Sutton Fields, Hull Bakery",GBR,53.7787,-0.344487,,,,,,,,,,,,
38480960,Greencore Prepared Meals Limited,GBR,52.8574,-2.53879,,,,,,,,,,,,
38481096,Greencore Prepared Meals Wisbech,GBR,52.652908,0.159845,,,,,,,,,,,,
38469307,Greengate  Works,GBR,53.442,-2.74062,,,,,,,,,,,,
38469337,Guardian Industries Uk Ltd,GBR,53.6978,-0.90936,,,,,,,,,,,,
38481054,Hammerton Street Chicken Processors,GBR,53.7906,-1.73767,,,,,,,,,,,,
38479476,Harley & Co (Peterhead) Ltd.,GBR,57.50689389999999,-1.78008,,,,,,,,,,,,
38481021,Holly Bank,GBR,52.8671,-1.70585,,,,,,,,,,,,
38481128,Holton Poultry Processing,GBR,52.355557,1.526808,,,,,,,,,,,,
1896807,Hope Cement Plant,GBR,53.338179235033,-1.75194050673703,,,,,,,,,,,,
38480876,Hull Vegetable Oil Plant,GBR,53.745805,-0.271322,,,,,,,,,,,,
18648378,"INEOS , Grangemouth ",GBR,56.010096,-3.693854,,,,,,,,,,,,
38473243,Infinity Apparel,GBR,53.78074429999999,-1.6061538,,,,,,,,,,,,
38481147,Interfish Ltd,GBR,50.363132,-4.118613,,,,,,,,,,,,
38476235,J + Jay Fabrics (Coventry) Ltd,GBR,52.418008,-1.506137,,,,,,,,,,,,
38479742,J. Alex Swift Ltd,GBR,52.7973572,-1.2544008,,,,,,,,,,,,
38479844,J. Wippell & Co. Ltd,GBR,50.71722519999999,-3.5414972,,,,,,,,,,,,
38476168,Jerseydyers,GBR,52.6143618,-1.1300977,,,,,,,,,,,,
38470035,John Cotton Mirfield,GBR,53.68563469999999,-1.72515,,,,,,,,,,,,
38472810,Jts Cushions Uk,GBR,53.866005,-1.9035899,,,,,,,,,,,,
38479853,Kaikoo & Skull Ltd,GBR,51.8228428,-0.8205712,,,,,,,,,,,,
38480993,Karro Food Ltd,GBR,54.6428,-6.7292,,,,,,,,,,,,
38480917,Kerry Ingredients Uk Ltd Coleraine,GBR,55.1397,-6.6669,,,,,,,,,,,,
1896817,Ketton Cement Plant,GBR,52.6405486248217,-0.54725313084425,,,,,,,,,,,,
38477570,Kidderminister Footwear,GBR,52.383405,-2.2485703,,,,,,,,,,,,
38481130,Kingstown Abattoir,GBR,54.921653,-2.956533,,,,,,,,,,,,
38481073,Kirkby Creamery,GBR,53.4669,-2.87455,,,,,,,,,,,,
38481171,Kitt Green Manufacturing Site ,GBR,53.551372,-2.68522,,,,,,,,,,,,
38480919,Lacpatrick Dairies (Ni) Ltd,GBR,54.8558,-7.4022,,,,,,,,,,,,
38479924,Ladkins Ltd,GBR,52.7339384,-1.1071826,,,,,,,,,,,,
38480990,Lag Farm Dairy ,GBR,51.3248,-2.69715,,,,,,,,,,,,
38480965,Langwathby Meat Processing Site,GBR,54.6933,-2.66229,,,,,,,,,,,,
38481056,Laurens Patisseries,GBR,53.0818,-0.78982,,,,,,,,,,,,
38469340,Leeds,GBR,53.7865,-1.53038,,,,,,,,,,,,
38469995,Lenzing Fibers Grimsby Ltd.,GBR,53.59312749999999,-0.1335583,,,,,,,,,,,,
38495266,Linden  Foods  Retail,GBR,54.4906622,-6.8088287,,,,,,,,,,,,
38480954,Linden Foods Ltd.,GBR,54.4903,-6.8083,,,,,,,,,,,,
38481181,Little Wratting Pork Processing ,GBR,52.101358,0.475643,,,,,,,,,,,,
38480897,Llandyrnog Creamery,GBR,53.180021,-3.33468,,,,,,,,,,,,
38474363,Ls Manufacturing,GBR,52.5777711,-2.1320939,,,,,,,,,,,,
38481030,Magor Brewery,GBR,51.5842,-2.84429,,,,,,,,,,,,
38481182,Malton Bacon Factory,GBR,54.132287,-0.772897,,,,,,,,,,,,
38481129,Manchester Cereals & Biscuits Epr/Bs3140Is,GBR,53.457181,-2.317124,,,,,,,,,,,,
1566829,Marcegaglia Sheffield steel plant,GBR,53.3994814874371,-1.39591883199077,,,,,,,,,,,,
38477762,Margotex,GBR,51.5946582,-0.1147118,,,,,,,,,,,,
38480871,Mars Petcare Uk,GBR,52.762611,-0.8811,,,,,,,,,,,,
38481074,Maryland Farm ,GBR,51.1216,-2.53733,,,,,,,,,,,,
38481161,Mathers Abattoir,GBR,57.288844,-2.386657,,,,,,,,,,,,
38480882,Mcvitie'S,GBR,53.434908,-2.18316,,,,,,,,,,,,
38480088,Medaax Limited,GBR,53.239449,-2.0909543,,,,,,,,,,,,
38480135,Milano Pro Sport Ltd.,GBR,53.7584347,-2.7117629,,,,,,,,,,,,
38480948,Moy Park Limited,GBR,53.0067,-1.71459,,,,,,,,,,,,
38495262,Moy Park Ltd,GBR,54.49651,-6.742722,,,,,,,,,,,,
38481005,Moy Park Ltd - Craigavon,GBR,54.4442,-6.4278,,,,,,,,,,,,
38480916,Moy Park Ltd - Dungannon,GBR,54.495,-6.7389,,,,,,,,,,,,
38480914,Moy Park Ltd Ballymena,GBR,54.855,-6.2564,,,,,,,,,,,,
38481123,"Moy Park Ltd, Bury St Edmunds Poultry Processing Plant",GBR,52.26596,0.707296,,,,,,,,,,,,
38481092,Murton Abattoir,GBR,53.96162,-1.00973,,,,,,,,,,,,
38477899,New Balance Flimby,GBR,54.6778667,-3.5311396,,,,,,,,,,,,
38480890,Newark Sugar Factory ,GBR,53.088144,-0.81743,,,,,,,,,,,,
38472588,Nikwax Ltd.,GBR,51.0661305,0.3294082,,,,,,,,,,,,
38474987,Nj Screen Prints Factory,GBR,52.5362829,-1.4077955,,,,,,,,,,,,
38480927,"North British Dist, Wheatfield Rd, Edinburgh",GBR,55.940298,-3.234468,,,,,,,,,,,,
38480989,Northfields Industrial Estate ,GBR,52.6888,-0.316325,,,,,,,,,,,,
38469339,O-I Manufacturing Uk Limited,GBR,51.785995,0.115818,,,,,,,,,,,,
38469309,O-I Manufacturing Uk Ltd,GBR,51.783,0.11043,,,,,,,,,,,,
38469294,O-I Manufacturing Uk Ltd Glasshouse Loan Allo,GBR,56.111219,-3.799475,,,,,,,,,,,,
38480877,Oakthorpe Dairy,GBR,51.614496,-0.093491,,,,,,,,,,,,
38476692,One Call Furniture Ltd,GBR,51.5300589,0.1283683,,,,,,,,,,,,
1896816,Padeswood Cement Plant,GBR,53.1523891066571,-3.06082162309511,,,,,,,,,,,,
38478045,Paint Box Textiles,GBR,53.7108024,-1.6912967,,,,,,,,,,,,
38473425,Pargat & Co Ltd,GBR,52.5104672,-1.9695682,,,,,,,,,,,,
38481026,Park Cakes Ltd,GBR,53.5293,-2.91749,,,,,,,,,,,,
38472562,Pittards Plc,GBR,50.9429532,-2.6120579,,,,,,,,,,,,
38469281,Pont-Y-Felin,GBR,51.674318,-3.014732,,,,,,,,,,,,
38481104,Poole Bakery Epr/Ep3639Wv,GBR,50.72618,-1.988189,,,,,,,,,,,,
38481112,"Portlethen Meat Factory, Aberdeen",GBR,57.065918,-2.131493,,,,,,,,,,,,
38474558,Potter And Moore Innovations Ltd,GBR,52.6094532,-0.2762871,,,,,,,,,,,,
38481055,Premier Foods - Ambrosia Creamery,GBR,50.6426,-4.26992,,,,,,,,,,,,
38481091,Premier Foods Carlton ,GBR,53.583,-1.44592,,,,,,,,,,,,
38481061,"Premier Foods Group Ltd, British Bakeries",GBR,51.5445,0.025029,,,,,,,,,,,,
38480962,Preston Abattoir,GBR,53.7556,-0.204178,,,,,,,,,,,,
38475990,"Printberry, Ltd",GBR,52.63619139999999,-1.1175645,,,,,,,,,,,,
38481197,Purfleet Margarine Factory,GBR,51.476516,0.257891,,,,,,,,,,,,
38481083,Purfleet Vegetable Oil Refinery,GBR,51.4752,0.257405,,,,,,,,,,,,
38481031,Pwllheli Creamery,GBR,52.9255,-4.37507,,,,,,,,,,,,
