source_id,source_name,source_type,iso3_country,sector,subsector,lat,lon,capacity_units,capacity,capacity_factor,annual_emissions_co2e_t,year,annual_capacity_t,annual_output_t,distance_km,SiteID,CompanyName,SiteName,City,Country,Subsector,Emissions_ETS_2014,production_2014_t,Fuel_Demand,Excess_Heat_Total,hm_lat,hm_lon,name_similarity,match_confidence,output_ratio_2024_2014
38480613,Agrana Zucker Gmbh,Animal And Vegetable Products From The Food And Beverage Sector,AUT,manufacturing,food-beverage-tobacco,48.243057,16.702778,USD,,,200029.63951204813,2024,,,,,,,,,,,,,,,,,unmatched,
38480620,Agrana Zucker Gmbh,Animal And Vegetable Products From The Food And Beverage Sector,AUT,manufacturing,food-beverage-tobacco,48.32478,16.038471,USD,,,200029.63951204813,2024,,,,,,,,,,,,,,,,,unmatched,
32267416,Austria,soda_ash,AUT,manufacturing,chemicals,47.6139487927463,14.076158884337072,t of chemical,182256.0,0.7782408388805239,60281.60149067872,2024,182256.0,141839.06233100875,,,,,,,,,,,,,,,unmatched,
38480528,Bunge Austria Gmbh,Animal And Vegetable Products From The Food And Beverage Sector,AUT,manufacturing,food-beverage-tobacco,48.022446,16.754778,USD,,,200029.63951204813,2024,,,,,,,,,,,,,,,,,unmatched,
38469135,D.Swarovski Kg,Glass Manufacturing,AUT,manufacturing,glass,47.29778,11.598611,USD,,,25206.02131318956,2024,,,0.4591019206069721,1675.0,D. Swarovski KG,Swarovski Wattens,Wattens,Austria,Glass,13951.0,,,0.0,47.295053,11.59404,1.0,high,
38479269,Eibetex,Packaging|Product Finishing|Filling|Filling Of Product,AUT,manufacturing,textiles-leather-apparel,48.81547,15.2833,USD,,,9237.590048999526,2024,,,,,,,,,,,,,,,,,unmatched,
32437243,Gartenau Cement Plant,integrated dry,AUT,manufacturing,cement,47.7235279928077,13.0492860026401,t of cement,1100000.00004,0.5916168853212139,367592.27747500007,2024,1100000.00004,650778.573877,0.3355028850689858,19.0,,Zementwerk Leube GmbH,St. Leonhard,Austria,Cement,245218.0,450023.16,437.52,65.62,47.721443,13.052528,0.3333333333333333,high,1.4461001826594881
38473498,Getzner Textil Ag,Dyeing,AUT,manufacturing,textiles-leather-apparel,47.1518218,9.8236408,USD,,,9237.590048999526,2024,,,,,,,,,,,,,,,,,unmatched,
32437244,Gmunden Cement Plant,integrated dry,AUT,manufacturing,cement,47.9225966590857,13.7778374280392,t of cement,799999.9999800002,0.7058069091251451,286642.30191299994,2024,799999.9999800002,564645.5272860001,0.0237142204426301,5.0,Zementwerk Hatschek GmbH,Zementwerk Hatschek GmbH,Gmunden,Austria,Cement,331127.0,607683.04,590.8,88.62,47.92278,13.778,0.30303030303030304,high,0.9291776964616292
38477448,Gottstein Gmbh & Co.Kg (#),Cut & Sew|Cutting|Embroidery|Washing|Ironing|Knit Composite|Packaging|Product Finishing|Knitting Seamless|Milling|Quality Control|Labelling,AUT,manufacturing,textiles-leather-apparel,47.2581587,10.677482,USD,,,9237.590048999526,2024,,,,,,,,,,,,,,,,,unmatched,
38472832,Hefel Textil Gmbh,Cut & Sew|Washing|Ironing|Packaging|Product Finishing,AUT,manufacturing,textiles-leather-apparel,48.4366178,14.5399221,USD,,,9237.590048999526,2024,,,,,,,,,,,,,,,,,unmatched,
38479518,Heratex (#),Cut & Sew|Packaging|Product Finishing,AUT,manufacturing,textiles-leather-apparel,47.4596131,13.9909218,USD,,,9237.590048999526,2024,,,,,,,,,,,,,,,,,unmatched,
38475947,Huber,Cut & Sew|Knit Composite|Packaging|Product Finishing,AUT,manufacturing,textiles-leather-apparel,47.4223539,13.8752059,USD,,,9237.590048999526,2024,,,,,,,,,,,,,,,,,unmatched,
38480512,Jungbunzlauer Austria Ag,Animal And Vegetable Products From The Food And Beverage Sector,AUT,manufacturing,food-beverage-tobacco,48.721222,16.27811,USD,,,310618.95592758583,2024,,,,,,,,,,,,,,,,,unmatched,
32437240,Kirchdorfer Cement Plant,integrated dry,AUT,manufacturing,cement,47.9087598061799,14.1163799202923,t of cement,500000.0000400001,0.5105250397791579,149882.4938,2024,500000.0000400001,255262.51990999997,0.19384065257188293,11.0,Kirchdorfer Zementbeteiligungs G,Kirchdorfer Zementwerk Hofmann GmbH,Kirchdorf an der Krems,Austria,Cement,203595.0,373636.78,363.25,54.48,47.907205,14.117556,0.7083333333333334,high,0.6831835985472307
44375328,"Laakirchen Papier AG, Heinzel Group",Pulp misc.,AUT,manufacturing,pulp-and-paper,47.9770957,13.8161934,t of pulp & paper,337999.99999,0.7693467454961346,151082.77519,2024,337999.99999,260039.19997,0.6945624422458652,23.0,UPM Kymmene,UPM Kymmene Austria GmbH,Steyrermühl,Austria,Paper and printing,79249.0,,,0.0,47.983334,13.816667,0.24,high,
45257135,Linz Melamine and Fertilizers Complex,ammonia,AUT,manufacturing,chemicals,48.2895958,14.3307955,t of chemical,1499999.9999999998,0.2533333333333333,752400.0,2024,1499999.9999999998,379999.9999999999,0.23553298156548935,1101.0,DSM Life Science Products Intern,DSM Fine Chemicals Austria Nfg GmbH & Co KG,Linz,Austria,Chemical industry,,,,0.0,48.288055,14.328611,0.26865671641791045,high,
1895156,Mannersdorf Cement Plant,integrated dry,AUT,manufacturing,cement,47.9836888240867,16.6070562287626,t of cement,1200000.00027,0.5822887680356518,313384.321305,2024,1200000.00027,698746.5218000001,0.5266588708135816,9.0,Lafarge SA,Lafarge Zementwerke GmbH,Mannersdorf,Austria,Cement,594014.0,1090132.28,1059.85,158.97,47.983334,16.6,0.43243243243243246,high,0.6409740676608531
44375330,Mondi Neusiedler GmbH,Chemical wood pulp; Mechanical and semi-chemical wood pulp,AUT,manufacturing,pulp-and-paper,48.0732305,14.8091594,t of pulp & paper,337999.99999,0.7693467454961346,151082.77519,2024,337999.99999,260039.19997,0.3384405752616202,21.0,Mondi,Mondi Neusiedler GmbH,Ulmerfeld-Hausmening,Austria,Paper and printing,94585.0,,,0.0,48.070251,14.808229,1.0,high,
18648341,"OMV AG , Schwechat ",Flex Integrated,AUT,manufacturing,petrochemical-steam-cracking,48.139922,16.512808,t of ethylene,500000.00004,0.7535149998597187,626939.1607500002,2024,500000.00004,376757.49996,0.695602730470296,13.0,Borealis AG,Borealis Polyolefine GmbH,Schwechat,Austria,Chemical industry,14510.0,,,0.0,48.136,16.520111,0.19047619047619047,high,
44375331,"Papierfabrik Wattens GmbH & Co KG, delfort",Semi-chemical wood pulp,AUT,manufacturing,pulp-and-paper,47.2969362,11.5903444,t of pulp & paper,337999.99999,0.7693467454961346,151082.77519,2024,337999.99999,260039.19997,0.18077079692186893,1649.0,Papierfabrik Wattens GmbH & Co KG,Papierfabrik Wattens,Wattens,Austria,Paper and printing,23794.0,90201.29,137.8,13.78,47.295513,11.591503,0.6363636363636364,high,2.882876730144325
32437242,Retznei Cement Plant,integrated dry,AUT,manufacturing,cement,46.7375344612225,15.5733587435471,t of cement,625000.0000100001,0.7106571786414294,348954.88275899994,2024,625000.0000100001,444160.736658,1.1689933136149415,8.0,Lafarge SA,Lafarge Zementwerke GmbH,Retznei,Austria,Cement,269972.0,495451.61,481.68,72.25,46.728058,15.58,0.48484848484848486,medium,0.8964765230210877
38469146,Saint-Gobain Isover Austria Gmbh,Glass Manufacturing,AUT,manufacturing,glass,48.03389,16.019,USD,,,25206.02131318956,2024,,,,,,,,,,,,,,,,,unmatched,
38472842,Seibersdorfer Bettfedern- Und Daunenfabrik Gmbh,Manufacturer| Wet Processing,AUT,manufacturing,textiles-leather-apparel,47.9170893,16.4255328,USD,,,9237.590048999526,2024,,,,,,,,,,,,,,,,,unmatched,
38469184,Stölzle-Oberglas Gmbh,Glass Manufacturing,AUT,manufacturing,glass,47.066387,15.0775,USD,,,25206.02131318956,2024,,,0.10633412605798435,1629.0,Stölzle-Oberglas GmbH,Stölzle-Oberglas Köflach,Köflach,Austria,Glass,46454.0,86351.67,138.64,27.72,47.067256,15.078086,1.0,high,
44375329,UPM-Kymmene Steyrermuhl Austria GmbH,Chemical wood pulp,AUT,manufacturing,pulp-and-paper,47.9915494,13.8000831,t of pulp & paper,337999.99999,0.7693467454961346,151082.77519,2024,337999.99999,260039.19997,1.9458753122382695,1666.0,Laakirchen Papier AG,SCA Laakirchen,Laakirchen,Austria,Paper and printing,2181.0,,12.63,0.0,47.98256,13.822516,0.25,low,
38469123,Vetropack Austria Gmbh,Glass Manufacturing,AUT,manufacturing,glass,48.0565,14.144222,USD,,,25206.02131318956,2024,,,0.25510004695422,1645.0,Vetropack Austria GmbH,Vetropack Kremsmünster,Kremsmünster,Austria,Glass,64209.0,119355.8,191.63,38.32,48.056022,14.140865,1.0,high,
38469169,Vetropack Austria Gmbh,Glass Manufacturing,AUT,manufacturing,glass,48.210835,15.220556,USD,,,25206.02131318956,2024,,,0.4475149864645707,1652.0,Vetropack Austria GmbH,Vetropack Pöchlarn,Pöchlarn,Austria,Glass,56240.0,104542.51,167.84,33.56,48.206813,15.220773,1.0,high,
32437245,Vils Cement Plant,integrated dry,AUT,manufacturing,cement,47.5523694919457,10.6384596501965,t of cement,300000.00001,0.4855097439071496,114432.2190976,2024,300000.00001,145652.923177,0.10359623489297434,18.0,Schretter & CIE GmbH & Co KG,SCHRETTER & CIE GmbH & Co KG,Vils,Austria,Cement,196542.0,294321.43,286.14,42.92,47.55153,10.637861,0.3333333333333333,high,0.49487705729412906
1566430,Voestalpine Stahl Donawitz steel plant,BF/BOF,AUT,manufacturing,iron-and-steel,47.3812785393747,15.0626634798431,t of steel,1570000.0000000002,0.7972928842490903,2378324.6737150364,2024,1570000.0000000002,1251749.828271072,1.655830761449965,1643.0,voestalpine Schienen GmbH,voestalpine Schienen GmbH,Leoben,Austria,Iron and steel,51351.0,130541.98,,0.0,47.374575,15.0823,0.6153846153846154,medium,9.58886810412307
1566429,Voestalpine Stahl Linz steel plant,BF/BOF,AUT,manufacturing,iron-and-steel,48.2800817722905,14.3312483129851,t of steel,6000000.0,0.882997718386658,10066173.989607904,2024,6000000.0,5297986.310319948,0.8979441149694817,2.0,voestalpine AG,voestalpine Stahl GmbH,Linz,Austria,Iron and steel,8698426.0,8444892.86,19732.48,966.36,48.281944,14.343056,0.7555555555555555,high,0.6273598017346484
32437246,Wietersdorf Cement Plant,integrated dry,AUT,manufacturing,cement,46.8508788768487,14.533475311296,t of cement,500000.0000400001,0.563312303654935,165380.04267,2024,500000.0000400001,281656.15185,0.04810152960078409,6.0,w&p GmbH,w&p Zement GmbH,Klein St. Paul,Austria,Cement,397425.0,729352.88,709.09,106.36,46.850555,14.533056,0.5,high,0.3861726738502767
38476726,Wolford Ag,Finished Goods,AUT,manufacturing,textiles-leather-apparel,47.4177188,9.6542278,USD,,,9237.590048999526,2024,,,,,,,,,,,,,,,,,unmatched,
32437239,Wopfinger Cement Plant,integrated dry,AUT,manufacturing,cement,47.8730536970234,16.0856916114804,t of cement,500000.0000400001,0.3717829629922572,109149.9011907,2024,500000.0000400001,185891.48151099996,0.09093448719778693,3.0,Schmid Industrieholding,Wopfinger Baustoffindustrie,Waldegg,Austria,Cement,364798.0,477398.78,464.13,69.62,47.87225,16.085917,0.5116279069767442,high,0.38938407322909363
44375327,Ybbstaler Zellstoff GmbH,"Pulp misc. (known types include chemical wood pulp, mechanical and semi-chemical wood pulp)",AUT,manufacturing,pulp-and-paper,48.0250129,14.7628564,t of pulp & paper,337999.99999,0.7693467454961346,151082.77519,2024,337999.99999,260039.19997,0.7505832458245176,22.0,Mondi Neusiedler GmbH,Ybbstaler Zellstoff GmbH,Kematen,Austria,Paper and printing,37376.0,,,0.0,48.022778,14.753333,1.0,high,
38468967,3B-Fibreglass,Glass Manufacturing,BEL,manufacturing,glass,50.65116,5.803042,USD,,,46519.50737093649,2024,,,1.2027439960056694,1724.0,3B-Fibreglass,3B-Fibreglass Battice,Battice,Belgium,Glass,60764.0,,,0.0,50.64827,5.819481,1.0,medium,
38469196,Agc Flat Glass Europe - Site De Roux  (Ex-Glaverbel Sa),Glass Manufacturing,BEL,manufacturing,glass,50.4553,4.4004,USD,,,46519.50737093649,2024,,,1.30522012557714,1727.0,AGC Flat Glass Europe,AGC Flat Glass Roux,Roux,Belgium,Glass,16252.0,16592.46,50.33,10.06,50.444134,4.394715,0.6176470588235294,medium,
38469213,Agc Glass Europe - Site De Moustier (Ex-Glaverbel Sa),Glass Manufacturing,BEL,manufacturing,glass,50.4475,4.6926,USD,,,274279.0154590416,2024,,,0.0,39.0,AGC GLASS EUROPE sa,AGC GLASS EUROPE - Site de Moustier (ex-GLAVERBEL sa),Moustier-sur-Sambre,Belgium,Glass,371132.0,378906.86,1149.35,229.87,50.4475,4.6926,1.0,high,
38469239,Agc Glass Europe Vestiging Mol,Glass Manufacturing,BEL,manufacturing,glass,51.18836,5.155452,USD,,,103366.34537822088,2024,,,0.6407779273823137,1701.0,AGC Flat Glass Europe,AGC Flat Glass Europe Mol Plant,Mol,Belgium,Glass,93571.0,95531.22,289.77,57.95,51.193368,5.160001,0.7272727272727273,high,
38480249,Alpro,Animal And Vegetable Products From The Food And Beverage Sector,BEL,manufacturing,food-beverage-tobacco,50.809956,3.211288,USD,,,57693.59206699895,2024,,,,,,,,,,,,,,,,,unmatched,
32437251,Antoing Cement Plant,integrated dry,BEL,manufacturing,cement,50.5765558254982,3.44408026408596,t of cement,799999.9999800002,0.4977893603299446,136233.00097690002,2024,799999.9999800002,398231.488254,0.12143287794580117,27.0,S.A. Cimenteries CBR,CBR sa - Site d'Antoing,Antoing,Belgium,Cement,642502.0,851461.22,827.8,124.17,50.576,3.4426,0.4375,high,0.4677036122138364
45257032,Antwerp Chemical Complex,methanol,BEL,manufacturing,chemicals,51.3591321,4.2694988,t of chemical,400000.00000000006,0.8899999999999999,133500.0,2024,400000.00000000006,356000.0,0.3519490395348027,57.0,STYROLUTION BELGIUM,STYROLUTION BELGIUM,Antwerpen,Belgium,Chemical industry,112505.0,,,0.0,51.35627,4.2673345,0.13953488372093023,high,
1566442,Aperam Stainless Belgium Châtelet steel plant,EAF,BEL,manufacturing,iron-and-steel,50.414955940121,4.53186650417152,t of steel,1000000.0,0.790175960784847,164988.74061187604,2024,1000000.0,790175.960784847,0.2824169991183768,33.0,Aperam Stainless Belgium SA,APERAM STAINLESS BELGIUM SA,Châtelet,Belgium,Iron and steel,168743.0,406827.05,80.8,38.78,50.416,4.5355,0.7619047619047619,high,1.942289630900519
1566441,Aperam Stainless Belgium Genk steel plant,EAF,BEL,manufacturing,iron-and-steel,50.9330895511162,5.51202361169479,t of steel,1200000.0,0.7901759607848471,197986.4887342513,2024,1200000.0,948211.1529418164,1.067203798549621,30.0,APERAM STAINLESS BELGIUM,APERAM STAINLESS BELGIUM,Genk,Belgium,Iron and steel,144793.0,349085.35,69.33,33.28,50.938103,5.499037,0.8135593220338984,medium,2.716273120432629
1566440,ArcelorMittal Gent steel plant,BF/BOF,BEL,manufacturing,iron-and-steel,51.1710954920418,3.80755559465241,t of steel,5000000.0,0.7584650560773878,7205418.032735184,2024,5000000.0,3792325.2803869382,0.784614690962704,56.0,ARCELORMITTAL BELGIUM,ARCELORMITTAL BELGIUM - GENT,Gent,Belgium,Iron and steel,4053039.0,9771581.12,27343.49,1918.42,51.176716,3.8143601,0.72,high,0.3880974055084075
38471296,Avs Spinning Nv,Yarn Spinning,BEL,manufacturing,textiles-leather-apparel,50.7223824,3.3315012,USD,,,14457.116642619272,2024,,,,,,,,,,,,,,,,,unmatched,
18648342,"BASF Antwerpen, NV Antwerp ",Flex Standalone,BEL,manufacturing,petrochemical-steam-cracking,51.358825,4.262207,t of ethylene,1080000.0,0.753515,1409391.79809,2024,1080000.0,813796.2000000001,0.4554957110276963,57.0,STYROLUTION BELGIUM,STYROLUTION BELGIUM,Antwerpen,Belgium,Chemical industry,112505.0,,,0.0,51.35627,4.2673345,0.2926829268292683,high,
33999004,BEL-Antwerpen_ammonia,ammonia,BEL,manufacturing,chemicals,51.2319382905994,4.72070443222579,t of chemical,810156.0,0.5759307040176926,923855.5565794326,2024,810156.0,466593.7154441578,,,,,,,,,,,,,,,unmatched,
33998943,BEL-Hainaut_ammonia,ammonia,BEL,manufacturing,chemicals,50.4636955021351,3.97003361295229,t of chemical,231636.0,0.5759307040176925,264144.44342056767,2024,231636.0,133406.28455584223,,,,,,,,,,,,,,,unmatched,
38470810,Belimtex Bvba,Trader Of Yarns,BEL,manufacturing,textiles-leather-apparel,50.9068366,3.4059296,USD,,,14457.116642619272,2024,,,,,,,,,,,,,,,,,unmatched,
38480772,Beneo - Orafti,Animal And Vegetable Products From The Food And Beverage Sector,BEL,manufacturing,food-beverage-tobacco,50.7245,5.3524,USD,,,103904.33440117889,2024,,,,,,,,,,,,,,,,,unmatched,
38480213,Boortmalt,Animal And Vegetable Products From The Food And Beverage Sector,BEL,manufacturing,food-beverage-tobacco,51.275116,4.355684,USD,,,57693.59206699895,2024,,,,,,,,,,,,,,,,,unmatched,
44375332,Burgo Ardennes S.A.,Chemical wood pulp; Mechanical and semi-chemical wood pulp,BEL,manufacturing,pulp-and-paper,49.5518274,5.5054045,t of pulp & paper,450000.0,0.7217555555999999,188702.99004,2024,450000.0,324790.00002,0.23126218690253042,51.0,Burgo Ardennes,BURGO ARDENNES sa,Harnoncourt,Belgium,Paper and printing,93352.0,271421.21,414.67,41.46,49.5499,5.5042,0.875,high,1.1966271907048087
38480849,Cargill,Animal And Vegetable Products From The Food And Beverage Sector,BEL,manufacturing,food-beverage-tobacco,51.135671,3.784262,USD,,,57693.59206699895,2024,,,,,,,,,,,,,,,,,unmatched,
38480835,Cargill,Animal And Vegetable Products From The Food And Beverage Sector,BEL,manufacturing,food-beverage-tobacco,51.280546,4.341369,USD,,,57693.59206699895,2024,,,,,,,,,,,,,,,,,unmatched,
38480248,Citrique Belge,Animal And Vegetable Products From The Food And Beverage Sector,BEL,manufacturing,food-beverage-tobacco,50.80137,4.961948,USD,,,57693.59206699895,2024,,,,,,,,,,,,,,,,,unmatched,
38480243,Cl Warneton Sa,Animal And Vegetable Products From The Food And Beverage Sector,BEL,manufacturing,food-beverage-tobacco,50.7424,2.9349,USD,,,57693.59206699895,2024,,,,,,,,,,,,,,,,,unmatched,
38480247,Coca-Cola European Partners Belgium,Animal And Vegetable Products From The Food And Beverage Sector,BEL,manufacturing,food-beverage-tobacco,51.157,4.3745,USD,,,57693.59206699895,2024,,,,,,,,,,,,,,,,,unmatched,
38474256,Cousy Bvba,Final Product Assembly,BEL,manufacturing,textiles-leather-apparel,50.8802686,3.8167968,USD,,,14457.116642619272,2024,,,,,,,,,,,,,,,,,unmatched,
38480245,Deliva,Animal And Vegetable Products From The Food And Beverage Sector,BEL,manufacturing,food-beverage-tobacco,50.916733,5.491459,USD,,,57693.59206699895,2024,,,,,,,,,,,,,,,,,unmatched,
38479106,Devan Chemicals,Agent | Factory Processing |  Manufacturer | Finished Product Supplier | Labour Provider | Packhouse | Service Provider | Sub-Contractor,BEL,manufacturing,textiles-leather-apparel,50.7516001,3.6437709,USD,,,14457.116642619272,2024,,,,,,,,,,,,,,,,,unmatched,
38469208,Durobor Glassware Sa,Glass Manufacturing,BEL,manufacturing,glass,50.5686,4.0751,USD,,,46519.50737093649,2024,,,0.6133071501808554,1739.0,Durobor Group,Durobor,Soignies,Belgium,Glass,16250.0,,,0.0,50.56337,4.077858,0.6666666666666666,high,
38469187,Emgo,Glass Manufacturing,BEL,manufacturing,glass,51.214036,5.290523,USD,,,46519.50737093649,2024,,,1.2905348015705995,1696.0,DUCATT,DUCATT NV,Lommel,Belgium,Glass,30285.0,30919.44,93.78,18.75,51.223111,5.302074,0.0,low,
38480211,Exportslachthuis Tielt,Animal And Vegetable Products From The Food And Beverage Sector,BEL,manufacturing,food-beverage-tobacco,51.00576,3.31441,USD,,,57693.59206699895,2024,,,,,,,,,,,,,,,,,unmatched,
38480215,Friesland Foods Belgie/Belgique,Animal And Vegetable Products From The Food And Beverage Sector,BEL,manufacturing,food-beverage-tobacco,51.10239,4.244851,USD,,,57693.59206699895,2024,,,,,,,,,,,,,,,,,unmatched,
1895170,Gaurain Cement Plant,integrated dry,BEL,manufacturing,cement,50.6033470668449,3.49006699801599,t of cement,2300000.0004,0.4555391628259932,823156.9896430001,2024,2300000.0004,1047740.074682,0.36467131493217575,43.0,CCB Italcementi-Group,CCB sa - Site de Gaurain-Ramecroix,Gaurain,Belgium,Cement,1302434.0,1644469.1,1598.78,239.81,50.6004,3.4878,0.46511627906976744,high,0.6371296819636197
38469225,Gerresheimer Momignies Sa,Glass Manufacturing,BEL,manufacturing,glass,50.0269,4.1517,USD,,,46519.50737093649,2024,,,0.5149569369848673,1740.0,Gerresheimer Momignies,Gerresheimer Momignies,Momignies,Belgium,Glass,19345.0,28810.54,46.25,9.25,50.026594,4.158893,1.0,high,
38471111,Groep Masureel Veredeling Nv,Dyeing Mill,BEL,manufacturing,textiles-leather-apparel,50.8118808,3.2196556,USD,,,14457.116642619272,2024,,,,,,,,,,,,,,,,,unmatched,
38480214,Inex,Animal And Vegetable Products From The Food And Beverage Sector,BEL,manufacturing,food-beverage-tobacco,50.942036,3.866163,USD,,,57693.59206699895,2024,,,,,,,,,,,,,,,,,unmatched,
38471018,Interspinning Nv,Yarn Trader,BEL,manufacturing,textiles-leather-apparel,51.08813019999999,3.6767186,USD,,,14457.116642619272,2024,,,,,,,,,,,,,,,,,unmatched,
38480628,Isera And Scaldis Sugar,Animal And Vegetable Products From The Food And Beverage Sector,BEL,manufacturing,food-beverage-tobacco,51.172178,3.925505,USD,,,57693.59206699895,2024,,,,,,,,,,,,,,,,,unmatched,
38468968,Knauf Insulation,Glass Manufacturing,BEL,manufacturing,glass,50.748352,5.701382,USD,,,46519.50737093649,2024,,,0.15298815167676105,1733.0,Knauf,Knauf Visé,Visé,Belgium,Glass,27926.0,,,0.0,50.748142,5.703531,0.64,high,
38480844,Konings Juices And Drinks,Animal And Vegetable Products From The Food And Beverage Sector,BEL,manufacturing,food-beverage-tobacco,50.801774,5.292077,USD,,,57693.59206699895,2024,,,,,,,,,,,,,,,,,unmatched,
38480210,Kraft Foods Belgium Production,Animal And Vegetable Products From The Food And Beverage Sector,BEL,manufacturing,food-beverage-tobacco,51.17418,4.82904,USD,,,57693.59206699895,2024,,,,,,,,,,,,,,,,,unmatched,
38472870,Lampe Textiles,Weaving|Finishing|Packing|Shipping,BEL,manufacturing,textiles-leather-apparel,51.0043056,3.35593,USD,,,14457.116642619272,2024,,,,,,,,,,,,,,,,,unmatched,
38480212,Leaf België Production Nv,Animal And Vegetable Products From The Food And Beverage Sector,BEL,manufacturing,food-beverage-tobacco,51.299,4.939429,USD,,,57693.59206699895,2024,,,,,,,,,,,,,,,,,unmatched,
38467373,Lhoist Industrie Sa - Site De On,Lime Production In Rotary Kilns,BEL,manufacturing,lime,50.1649,5.268,t of lime,1965685.0373952172,0.5300950948558751,419399.8939734195,2024,1965685.0373952172,1041999.9963547922,,,,,,,,,,,,,,,unmatched,
38476375,Libeco Lagae Nv.,Warping|Weaving|Finishing,BEL,manufacturing,textiles-leather-apparel,50.9567532,3.297014,USD,,,14457.116642619272,2024,,,,,,,,,,,,,,,,,unmatched,
32437252,Lixhe Cement Plant,integrated dry,BEL,manufacturing,cement,50.7655332494607,5.67383641398411,t of cement,1499999.9999000002,0.5612794489374185,288016.339579,2024,1499999.9999000002,841919.1733499999,0.6004332697926358,29.0,S.A. Cimenteries CBR,CBR sa - Site de Lixhe,Visé,Belgium,Cement,987407.0,1308538.77,1272.19,190.82,50.7602,5.6725,0.3870967741935484,high,0.6434040722767427
38480241,Manshoven Vers,Animal And Vegetable Products From The Food And Beverage Sector,BEL,manufacturing,food-beverage-tobacco,50.88159,5.296548,USD,,,57693.59206699895,2024,,,,,,,,,,,,,,,,,unmatched,
38480638,Mars Belgium,Animal And Vegetable Products From The Food And Beverage Sector,BEL,manufacturing,food-beverage-tobacco,51.145015,4.870171,USD,,,57693.59206699895,2024,,,,,,,,,,,,,,,,,unmatched,
38472835,Mcthree Carpets,Finished Goods,BEL,manufacturing,textiles-leather-apparel,50.8619452,3.420825,USD,,,14457.116642619272,2024,,,,,,,,,,,,,,,,,unmatched,
32437253,Obourg Cement Plant,integrated wet,BEL,manufacturing,cement,50.4726674421383,3.99262683078541,t of cement,1699999.9998,0.4934130722462838,591351.3729500001,2024,1699999.9998,838802.2227199998,0.09893293408568016,50.0,Holcim Belgique sa,HOLCIM Belgique sa - Usine d'OBOURG,Obourg,Belgium,Cement,986622.0,1245721.01,1211.11,181.66,50.4723,3.9939,0.2857142857142857,high,0.6733467734641482
38480867,Olympia,Animal And Vegetable Products From The Food And Beverage Sector,BEL,manufacturing,food-beverage-tobacco,50.742309,4.08667,USD,,,57693.59206699895,2024,,,,,,,,,,,,,,,,,unmatched,
38480873,Pb Leiner Vilvoorde,Animal And Vegetable Products From The Food And Beverage Sector,BEL,manufacturing,food-beverage-tobacco,50.938433,4.418274,USD,,,57693.59206699895,2024,,,,,,,,,,,,,,,,,unmatched,
38480637,Raffinerie Tirlemontoise Sa - Site De Brugelette,Animal And Vegetable Products From The Food And Beverage Sector,BEL,manufacturing,food-beverage-tobacco,50.5938,3.8574,USD,,,57693.59206699895,2024,,,,,,,,,,,,,,,,,unmatched,
38480647,Raffinerie Tirlemontoise Sa - Site De Hollogne,Animal And Vegetable Products From The Food And Beverage Sector,BEL,manufacturing,food-beverage-tobacco,50.6744,5.2136,USD,,,57693.59206699895,2024,,,,,,,,,,,,,,,,,unmatched,
38480784,Raffinerie Tirlemontoise Sa - Site De Wanze,Animal And Vegetable Products From The Food And Beverage Sector,BEL,manufacturing,food-beverage-tobacco,50.5286,5.2072,USD,,,57693.59206699895,2024,,,,,,,,,,,,,,,,,unmatched,
38469190,Saint-Gobain Glass Sa,Glass Manufacturing,BEL,manufacturing,glass,50.4499,4.6163,USD,,,134069.220243039,2024,,,0.0,32.0,Saint-Gobain,SAINT-GOBAIN GLASS sa,Auvelais,Belgium,Glass,,,,0.0,50.4499,4.6163,1.0,high,
38468966,Saverglass Md Verre,Glass Manufacturing,BEL,manufacturing,glass,50.4816,3.8833,USD,,,46519.50737093649,2024,,,1.5728907831727559,1722.0,MD Verre,MD Verre,Ghlin,Belgium,Glass,59081.0,87989.45,141.27,28.25,50.47605,3.903746,0.5925925925925926,medium,
38480217,Schildermans Pluimveeslachterij,Animal And Vegetable Products From The Food And Beverage Sector,BEL,manufacturing,food-beverage-tobacco,51.141735,5.562029,USD,,,57693.59206699895,2024,,,,,,,,,,,,,,,,,unmatched,
38480650,Slachthuis Genk,Animal And Vegetable Products From The Food And Beverage Sector,BEL,manufacturing,food-beverage-tobacco,50.966324,5.484406,USD,,,57693.59206699895,2024,,,,,,,,,,,,,,,,,unmatched,
38480218,Slachthuis Heist Op Den Berg,Animal And Vegetable Products From The Food And Beverage Sector,BEL,manufacturing,food-beverage-tobacco,51.070156,4.699204,USD,,,57693.59206699895,2024,,,,,,,,,,,,,,,,,unmatched,
38480251,Slachthuis Heyst,Animal And Vegetable Products From The Food And Beverage Sector,BEL,manufacturing,food-beverage-tobacco,51.069556,4.700937,USD,,,57693.59206699895,2024,,,,,,,,,,,,,,,,,unmatched,
38480209,Slachthuis Sint Truiden,Animal And Vegetable Products From The Food And Beverage Sector,BEL,manufacturing,food-beverage-tobacco,50.82002,5.19318,USD,,,57693.59206699895,2024,,,,,,,,,,,,,,,,,unmatched,
38480242,Tecoma,Animal And Vegetable Products From The Food And Beverage Sector,BEL,manufacturing,food-beverage-tobacco,51.273685,4.358077,USD,,,63281.876271932255,2024,,,,,,,,,,,,,,,,,unmatched,
38480863,Tereos Starch & Sweeteners Belgium,Animal And Vegetable Products From The Food And Beverage Sector,BEL,manufacturing,food-beverage-tobacco,50.937207,4.045239,USD,,,214498.61850101736,2024,,,,,,,,,,,,,,,,,unmatched,
1566443,Thy Marcinelle Charleroi steel plant,EAF,BEL,manufacturing,iron-and-steel,50.4098301921851,4.4305388035139,t of steel,800000.0000000001,0.7901759607848469,50571.26149023021,2024,800000.0000000001,632140.7686278776,0.04749336098767609,49.0,THY-MARCINELLE,THY MARCINELLE sa,Charleroi,Belgium,Iron and steel,95124.0,229337.01,45.55,21.86,50.4099,4.4312,0.6363636363636364,high,2.7563835799022476
38480880,Tiense Suikerraffinaderij,Animal And Vegetable Products From The Food And Beverage Sector,BEL,manufacturing,food-beverage-tobacco,50.794086,4.936095,USD,,,118904.33438616616,2024,,,,,,,,,,,,,,,,,unmatched,
18648343,"TotalEnergies Fina Antwerp Olefin, Antwerp",Flex Integrated,BEL,manufacturing,petrochemical-steam-cracking,51.254801,4.332047,t of ethylene,1160000.0000399998,0.7535149999395341,1454498.85324,2024,1160000.0000399998,874077.3999600001,0.3439365383296161,1294.0,FINA ANTWERP OLEFINS,FINA ANTWERP OLEFINS,Antwerpen,Belgium,Chemical industry,,,,0.0,51.25782,4.3309717,0.6229508196721312,high,
38480938,Trotec,Animal And Vegetable Products From The Food And Beverage Sector,BEL,manufacturing,food-beverage-tobacco,51.062185,2.672423,USD,,,57693.59206699895,2024,,,,,,,,,,,,,,,,,unmatched,
3673515,UMICORE - HOBOKEN,Non-ferrous crude metal production,BEL,manufacturing,other-metals,51.1677,4.3348,unitless,,,212999.9996762813,2024,,,0.046945161330775295,1299.0,UMICORE,UMICORE - HOBOKEN,Antwerpen,Belgium,Non-ferrous metals,,,,0.0,51.167282,4.3347054,1.0,high,
38469278,Ursa Benelux,Glass Manufacturing,BEL,manufacturing,glass,50.890745,3.360928,USD,,,46519.50737093649,2024,,,0.9345409154330306,1719.0,URSA Benelux,URSA Benelux,Waregem,Belgium,Glass,12251.0,,,0.0,50.892753,3.373866,1.0,high,
38474877,Utexbel,Worsted Yarn | Short-Staple Spinning,BEL,manufacturing,textiles-leather-apparel,50.7477392,3.5862308,USD,,,14457.116642619272,2024,,,,,,,,,,,,,,,,,unmatched,
38480208,Vaco Olen,Animal And Vegetable Products From The Food And Beverage Sector,BEL,manufacturing,food-beverage-tobacco,51.14898,4.899779,USD,,,57693.59206699895,2024,,,,,,,,,,,,,,,,,unmatched,
38480244,Vacos Kitchen Herselt,Animal And Vegetable Products From The Food And Beverage Sector,BEL,manufacturing,food-beverage-tobacco,51.06432,4.891171,USD,,,57693.59206699895,2024,,,,,,,,,,,,,,,,,unmatched,
38480250,Vandamme Oliefabriek,Animal And Vegetable Products From The Food And Beverage Sector,BEL,manufacturing,food-beverage-tobacco,50.974694,3.505533,USD,,,57693.59206699895,2024,,,,,,,,,,,,,,,,,unmatched,
38480898,Vandamme Oliefabriek,Animal And Vegetable Products From The Food And Beverage Sector,BEL,manufacturing,food-beverage-tobacco,50.975382,3.504083,USD,,,57693.59206699895,2024,,,,,,,,,,,,,,,,,unmatched,
38480216,Vleeswarenbedrijf Bruynkens,Animal And Vegetable Products From The Food And Beverage Sector,BEL,manufacturing,food-beverage-tobacco,51.1495,4.901222,USD,,,57693.59206699895,2024,,,,,,,,,,,,,,,,,unmatched,
38480246,Westvlees,Animal And Vegetable Products From The Food And Beverage Sector,BEL,manufacturing,food-beverage-tobacco,50.930496,3.006087,USD,,,57693.59206699895,2024,,,,,,,,,,,,,,,,,unmatched,
38468973,"""Rubin"" Ad",Glass Manufacturing,BGR,manufacturing,glass,43.439636,24.567545,USD,,,69510.64989878118,2024,,,,,,,,,,,,,,,,,unmatched,
38473721,Abotis Ltd,Final Product Assembly,BGR,manufacturing,textiles-leather-apparel,41.8859984,23.4628413,USD,,,1156.4752081996533,2024,,,,,,,,,,,,,,,,,unmatched,
38478594,Almina Jsc.,Final Product Assembly,BGR,manufacturing,textiles-leather-apparel,43.8178375,23.2383326,USD,,,1156.4752081996533,2024,,,,,,,,,,,,,,,,,unmatched,
38480259,Amilum Bg Ead,Animal And Vegetable Products From The Food And Beverage Sector,BGR,manufacturing,food-beverage-tobacco,43.5692,26.5279,USD,,,132719.1933584209,2024,,,,,,,,,,,,,,,,,unmatched,
38479157,Arda Ltd.,Cut & Sew|Cutting|Embroidery|Packaging|Product Finishing,BGR,manufacturing,textiles-leather-apparel,43.8403431,25.9489572,USD,,,1156.4752081996533,2024,,,,,,,,,,,,,,,,,unmatched,
38478768,B.E.G.S Fashion Pltd (Site 2),Final Product Assembly,BGR,manufacturing,textiles-leather-apparel,42.0208569,23.0943385,USD,,,1156.4752081996533,2024,,,,,,,,,,,,,,,,,unmatched,
38478754,Bames Eood,Final Product Assembly,BGR,manufacturing,textiles-leather-apparel,41.7620296,25.347511,USD,,,1156.4752081996533,2024,,,,,,,,,,,,,,,,,unmatched,
38475172,Begs  Fashion Pltd,Final Product Assembly,BGR,manufacturing,textiles-leather-apparel,41.5678434,23.2803538,USD,,,1156.4752081996533,2024,,,,,,,,,,,,,,,,,unmatched,
32437258,Beli Izvor Cement Plant,integrated dry,BGR,manufacturing,cement,43.2820181525008,23.4653676582166,t of cement,1699999.9998,0.4088451126186876,472103.67262,2024,1699999.9998,695036.69137,0.17194152102190116,64.0,HOLSIM BULGARIA,Ploshtadka Beli Izvor,Beli Izvor,Bulgaria,Cement,383494.0,1022366.34,993.96,149.09,43.28318,23.463966,0.5263157894736842,high,0.6798313522039469
38468969,Bi Ei Glas Bg Glass Manufacturing Company,Glass Manufacturing,BGR,manufacturing,glass,42.169785,24.739872,USD,,,148640.39041239792,2024,,,0.0,70.0,DRUZHBA STAKLARSKI ZAVODI,Ploshtadka Plovdiv,Plovdiv,Bulgaria,Glass,117884.0,184975.69,296.98,59.39,42.169785,24.739872,0.12121212121212122,high,
38468970,Bi Ei Glass Bg Glass Manufacturing Company,Glass Manufacturing,BGR,manufacturing,glass,42.733334,23.316668,USD,,,69510.64989878118,2024,,,,,,,,,,,,,,,,,unmatched,
38470863,Bulstar Ltd,Printing | Product Dyeing And Laundering,BGR,manufacturing,textiles-leather-apparel,41.4013466,23.2402739,USD,,,1156.4752081996533,2024,,,,,,,,,,,,,,,,,unmatched,
38475230,Burov I Sie Ood,Cut & Sew|Ironing|Packaging|Product Finishing|Sewing,BGR,manufacturing,textiles-leather-apparel,41.3641223,23.0707337,USD,,,1156.4752081996533,2024,,,,,,,,,,,,,,,,,unmatched,
38477240,D.San Eood,Final Product Assembly,BGR,manufacturing,textiles-leather-apparel,41.5503364,23.2642621,USD,,,1156.4752081996533,2024,,,,,,,,,,,,,,,,,unmatched,
38479037,Darvodelnitsa Eood,Final Product Assembly,BGR,manufacturing,textiles-leather-apparel,41.5728211,23.7282719,USD,,,1156.4752081996533,2024,,,,,,,,,,,,,,,,,unmatched,
38479093,Designer Concepts Eood,Finished Goods,BGR,manufacturing,textiles-leather-apparel,42.6270424,23.4466431,USD,,,1156.4752081996533,2024,,,,,,,,,,,,,,,,,unmatched,
32437257,Devnya Cement Plant,integrated dry,BGR,manufacturing,cement,43.2344758161164,27.5948982801824,t of cement,1499999.9999000002,0.4001979133333465,205358.557729,2024,1499999.9999000002,600296.86996,0.09375247263748232,69.0,DEVNIA TSIMENT,Devnya Tsiment,Devnia,Bulgaria,Cement,770448.0,,,0.0,43.235107,27.594131,0.8148148148148148,high,
38479114,Dexa Group Ltd,Final Product Assembly,BGR,manufacturing,textiles-leather-apparel,43.5870818,27.8348966,USD,,,1156.4752081996533,2024,,,,,,,,,,,,,,,,,unmatched,
45257068,Dimitrovgrad Fertilizer Complex,ammonia,BGR,manufacturing,chemicals,42.0514348,25.6174539,t of chemical,766500.0,0.2583170254403131,392040.0,2024,766500.0,198000.0,0.16068737043339434,75.0,NEOHIM,NEOHIMAD,Dimitrovgrad,Bulgaria,Chemical industry,597598.0,,,0.0,42.05,25.617222,0.20512820512820512,high,
38475511,Diss-3 Eood,Final Product Assembly,BGR,manufacturing,textiles-leather-apparel,41.5546421,23.2647575,USD,,,1156.4752081996533,2024,,,,,,,,,,,,,,,,,unmatched,
38475621,E Miroglio Ead Spinning And Dyeing Yambol,Wet Process| Spinning,BGR,manufacturing,textiles-leather-apparel,42.4841999,26.5035023,USD,,,1156.4752081996533,2024,,,,,,,,,,,,,,,,,unmatched,
38469517,E.Miroglio Ead,Wet Process| Spinning,BGR,manufacturing,textiles-leather-apparel,42.660231,26.3334882,USD,,,1156.4752081996533,2024,,,,,,,,,,,,,,,,,unmatched,
38475612,Elena Fashion Ltd,Cut & Sew|Cutting|Ironing|Packaging|Product Finishing,BGR,manufacturing,textiles-leather-apparel,42.6742395,23.3007492,USD,,,1156.4752081996533,2024,,,,,,,,,,,,,,,,,unmatched,
38479162,Elit Jsc.,Final Product Assembly,BGR,manufacturing,textiles-leather-apparel,43.2388431,25.2994166,USD,,,1156.4752081996533,2024,,,,,,,,,,,,,,,,,unmatched,
38479234,Et Boris-Burov 2878,Final Product Assembly,BGR,manufacturing,textiles-leather-apparel,41.39810809999999,23.2066849,USD,,,1156.4752081996533,2024,,,,,,,,,,,,,,,,,unmatched,
38479237,Et Vasti 2 -Rosen Mitov,Final Product Assembly,BGR,manufacturing,textiles-leather-apparel,41.5635838,23.2802706,USD,,,1156.4752081996533,2024,,,,,,,,,,,,,,,,,unmatched,
38479333,Fashco Fashion Service Company Ltd,Washing|Product Finishing|Dyeing,BGR,manufacturing,textiles-leather-apparel,43.4599598,25.7391449,USD,,,1156.4752081996533,2024,,,,,,,,,,,,,,,,,unmatched,
38470276,Fashion Mania,Cutting|Garment Washing|Garment Linking|Packing|Steaming|Stitching,BGR,manufacturing,textiles-leather-apparel,43.4180995,24.628739,USD,,,1156.4752081996533,2024,,,,,,,,,,,,,,,,,unmatched,
38479419,Feshko Fashion Services Company Ood,Product Finishing,BGR,manufacturing,textiles-leather-apparel,42.8799008,27.8811178,USD,,,1156.4752081996533,2024,,,,,,,,,,,,,,,,,unmatched,
38474505,Geana Ltd.,Cut & Sew|Product Finishing,BGR,manufacturing,textiles-leather-apparel,43.7979981,25.9053209,USD,,,1156.4752081996533,2024,,,,,,,,,,,,,,,,,unmatched,
38477463,Greek Style,Final Product Assembly,BGR,manufacturing,textiles-leather-apparel,41.5678434,23.2803538,USD,,,1156.4752081996533,2024,,,,,,,,,,,,,,,,,unmatched,
38472264,Hrisa Tekstil,Final Product Assembly,BGR,manufacturing,textiles-leather-apparel,41.4214375,23.2143125,USD,,,1156.4752081996533,2024,,,,,,,,,,,,,,,,,unmatched,
38479722,Izi Company Ltd,Washing,BGR,manufacturing,textiles-leather-apparel,43.7666556,25.9648501,USD,,,1156.4752081996533,2024,,,,,,,,,,,,,,,,,unmatched,
38471178,Kalinel Ltd.,Weaving|Sewing|Cutting|Embroidery|Filling|Finishing|Packing|Shipping,BGR,manufacturing,textiles-leather-apparel,42.8710995,24.7279875,USD,,,1156.4752081996533,2024,,,,,,,,,,,,,,,,,unmatched,
38480258,Karlsberg Bg Brewery,Animal And Vegetable Products From The Food And Beverage Sector,BGR,manufacturing,food-beverage-tobacco,42.004527,23.092694,USD,,,159814.6728045175,2024,,,,,,,,,,,,,,,,,unmatched,
40691242,"Lukoil Neftohim Burgas, Burgas",Flex Integrated,BGR,manufacturing,petrochemical-steam-cracking,42.5403,27.32689,t of ethylene,249999.99995999996,0.7292900002766867,241079.95031999997,2024,249999.99995999996,182322.50004000004,0.9734150013036144,74.0,LUKOYL NEFTOHIM BURGAS,"Lukoyl Neftohim Burgas AD, gr Burgas",Burgas,Bulgaria,Refineries,1024860.0,,,0.0,42.54544,27.336508,0.875,high,
38480055,Manchevi Eood,Final Product Assembly,BGR,manufacturing,textiles-leather-apparel,42.0774024,26.6532307,USD,,,1156.4752081996533,2024,,,,,,,,,,,,,,,,,unmatched,
38480171,Modelo Ltd.,Final Product Assembly,BGR,manufacturing,textiles-leather-apparel,41.5196569,23.7960616,USD,,,1156.4752081996533,2024,,,,,,,,,,,,,,,,,unmatched,
38477988,Nova Linia,Cut & Sew|Ironing|Packaging|Product Finishing,BGR,manufacturing,textiles-leather-apparel,43.7979981,25.9053209,USD,,,1156.4752081996533,2024,,,,,,,,,,,,,,,,,unmatched,
38468974,Rubin Invest Ad,Glass Manufacturing,BGR,manufacturing,glass,43.439722,24.565694,USD,,,69510.64989878115,2024,,,,,,,,,,,,,,,,,unmatched,
38468975,Rubin Traiding Glass Manufacturing Company,Glass Manufacturing,BGR,manufacturing,glass,43.440028,24.564889,USD,,,69510.64989878115,2024,,,,,,,,,,,,,,,,,unmatched,
38476354,S&P Textile Eood,Final Product Assembly,BGR,manufacturing,textiles-leather-apparel,41.5503364,23.2642621,USD,,,1156.4752081996533,2024,,,,,,,,,,,,,,,,,unmatched,
38478005,Saime Stil Eood,Final Product Assembly,BGR,manufacturing,textiles-leather-apparel,41.5718061,23.9467592,USD,,,1156.4752081996533,2024,,,,,,,,,,,,,,,,,unmatched,
45257185,Solvay Sodi Devnya Soda Ash Plant,soda_ash,BGR,manufacturing,chemicals,43.199671,27.64172,t of chemical,1600000.0000000002,0.7782408388805235,529203.7704387562,2024,1600000.0000000002,1245185.342208838,1.4993821399011091,66.0,AGROPOLIHIM,Agropolihim AD,Devnya,Bulgaria,Chemical industry,491840.0,,,0.0,43.20079,27.660154,0.24390243902439024,low,
44375334,Stambolijski Kraft Pulp & Paper Mill,Pulp misc.,BGR,manufacturing,pulp-and-paper,42.1340315,24.5212027,t of pulp & paper,99790.000001,0.93244237488794,54061.134684,2024,99790.000001,93048.42459099996,0.11016114427895629,73.0,MONDI  STAMBOLIYSKI,MONDI STAMBOLIYSKI EAD,Stamboliiski,Bulgaria,Paper and printing,32505.0,96989.4,148.17,14.81,42.134639,24.522258,0.5098039215686274,high,0.9593669472230982
38478238,Stohi Ltd,Final Product Assembly,BGR,manufacturing,textiles-leather-apparel,42.01563429999999,23.0961769,USD,,,1156.4752081996533,2024,,,,,,,,,,,,,,,,,unmatched,
1566444,Stomana Industry Pernik steel plant,EAF,BGR,manufacturing,iron-and-steel,42.5926210644345,23.1034276804564,t of steel,1400000.0,0.3214285714285714,36000.0,2024,1400000.0,449999.99999999994,0.13006978808698796,71.0,STOMANA-INDASTRI,Stomana Indastri AD,Pernik,Bulgaria,Iron and steel,115562.0,445958.81,142.52,68.41,42.593002,23.10493,0.6666666666666666,high,1.009061801021489
44375333,"Svilocell EAD, Subsidiary of Svilosa AD",Chemical wood pulp; Pulp from fibres other than wood,BGR,manufacturing,pulp-and-paper,43.618351,25.3506224,t of pulp & paper,99790.000001,0.93244237488794,54061.134684,2024,99790.000001,93048.42459099996,,,,,,,,,,,,,,,unmatched,
44375335,Svistov Pulp Plant,Pulp misc.,BGR,manufacturing,pulp-and-paper,43.63592,25.30431,t of pulp & paper,99790.000001,0.93244237488794,54061.134684,2024,99790.000001,93048.42459099996,0.4063844993778304,67.0,SVILOZA,"Instalatsia za proizvodstvo na sulfatno izbelena tseluloza ot shirokolistna darvesina (Zavod za tseluloza), Elektrolizna instalatsia za proizvodstvo na natriev hlorat",Svichtov,Bulgaria,Paper and printing,2791.0,,,0.0,43.639465,25.305538,0.42105263157894735,high,
38468972,Trakia Glass Bg Glass Manufacturing Company,Glass Manufacturing,BGR,manufacturing,glass,43.275276,26.519583,USD,,,268423.50898028904,2024,,,0.0,63.0,TRAKIA GLAS BULGARIA,Trakia Glas Balgaria EAD,Targovichte,Bulgaria,Glass,231410.0,209875.0,636.62,127.32,43.275276,26.519583,0.5714285714285714,high,
38478477,Ubi-2 Eood,Final Product Assembly,BGR,manufacturing,textiles-leather-apparel,41.5289091,23.9853567,USD,,,1156.4752081996533,2024,,,,,,,,,,,,,,,,,unmatched,
32437259,Zlatna Panega Cement Plant,integrated dry,BGR,manufacturing,cement,43.0879288257691,24.1750943535129,t of cement,1499999.9999000002,0.7112831207667523,724708.589622,2024,1499999.9999000002,1066924.6810790002,0.338793046228381,65.0,ZLATNA PANEGA TSIMENT,Zlatna Panega Tsiment AD,Zlatna Panega,Bulgaria,Cement,386220.0,1029633.65,1001.03,150.15,43.088184,24.170937,0.8780487804878049,high,1.0362177664638295
32438303,Vassiliko Cement Plant,integrated dry,CYP,manufacturing,cement,34.7235696842141,33.3162181445185,t of cement,1999999.9999,0.362560455108128,497722.9926800001,2024,1999999.9999,725120.91018,0.21224847980246003,77.0,VASSILIKO CEMENT WORKS PUBLIC COMPANY LTD,"VASSILIKO CEMENT WORKS PUBLIC COMPANY LTD, Vassilikos Plant",,Cyprus,Cement,1506658.0,2648977.61,2575.39,386.3,34.721666,33.316388,0.6037735849056604,high,0.2737361416127636
38476920,Ace Sport S.R.O.,Finished Goods,CZE,manufacturing,textiles-leather-apparel,49.3136152,14.1591341,USD,,,41055.12162086152,2024,,,,,,,,,,,,,,,,,unmatched,
38480307,Adm Olomouc S.R.O.,Animal And Vegetable Products From The Food And Beverage Sector,CZE,manufacturing,food-beverage-tobacco,49.584855,17.309113,USD,,,34999.87851039961,2024,,,,,,,,,,,,,,,,,unmatched,
38480347,Agricol S.R.O.,Animal And Vegetable Products From The Food And Beverage Sector,CZE,manufacturing,food-beverage-tobacco,49.719244,16.26695,USD,,,34999.87851039961,2024,,,,,,,,,,,,,,,,,unmatched,
38480303,Agrodružstvo Jevišovice - Středisko Jevišovice,Animal And Vegetable Products From The Food And Beverage Sector,CZE,manufacturing,food-beverage-tobacco,48.977221,15.994444,USD,,,34999.87851039961,2024,,,,,,,,,,,,,,,,,unmatched,
38476979,Alena Cendelinova,Finished Goods,CZE,manufacturing,textiles-leather-apparel,49.3434598,14.1505469,USD,,,41055.12162086152,2024,,,,,,,,,,,,,,,,,unmatched,
38472848,Amreiters S.R.O.,Wet Processing,CZE,manufacturing,textiles-leather-apparel,50.2126762,12.2008194,USD,,,41055.12162086152,2024,,,,,,,,,,,,,,,,,unmatched,
44375503,Biocel Paskov a.s.,Chemical wood pulp,CZE,manufacturing,pulp-and-paper,49.717969,18.2946046,t of pulp & paper,272160.0,0.8080645160934744,127775.16931,2024,272160.0,219922.8387,0.56547609317101,87.0,Biocel Paskov a.s.,Biocel Paskov a.s.,Paskov,Czech Republic,Paper and printing,14130.0,,,0.0,49.713977,18.289732,1.0,high,
33998934,CZE-Most_ammonia,ammonia,CZE,manufacturing,chemicals,50.5521841185891,13.6253630022868,t of chemical,237120.0,0.5904183535762484,277200.0,2024,237120.0,140000.00000000003,1.396983066930661,1126.0,"UNIPETROL RPA, s.r.o.",UNIPETROL RPA,Litvínov,Czech Republic,Chemical industry,,,,0.0,50.56136055,13.611856480556,0.20689655172413793,low,
32438307,Cizkovice Cement Plant,integrated dry,CZE,manufacturing,cement,50.4892392146656,14.0442571348417,t of cement,1100000.00004,0.7270246034735627,389139.192,2024,1100000.00004,799727.06385,0.06730169742473949,85.0,"Lafarge Cement, a.s.","Lafarge Cement, a.s.",Čížkovice,Czech Republic,Cement,348099.0,752516.49,731.61,109.74,50.489526388889,14.045094569444,0.47058823529411764,high,1.062736929326293
38468985,"Crystal Bohemia, A.S. - Poděbrady",Glass Manufacturing,CZE,manufacturing,glass,50.145048,15.127301,USD,,,20110.29422882927,2024,,,0.44770085658300396,1840.0,"Crystal BOHEMIA, a.s.","Crystal BOHEMIA, a.s.",Poděbrady,Czech Republic,Glass,5741.0,,,0.0,50.148194,15.12338,0.7916666666666666,high,
38468981,Crystalite Bohemia S.R.O. - Světlá Nad Sázavou,Glass Manufacturing,CZE,manufacturing,glass,49.665921,15.418838,USD,,,20110.29422882927,2024,,,0.27055689626487356,1877.0,CRYSTALITE BOHEMIA s.r.o.,"CRYSTALITE BOHEMIA, s.r.o.",Světlá nad Sázavou,Czech Republic,Glass,12841.0,,,0.0,49.666544,15.415204,0.7272727272727273,high,
38480340,Cukrovar Dobrovice,Animal And Vegetable Products From The Food And Beverage Sector,CZE,manufacturing,food-beverage-tobacco,50.368128,14.964525,USD,,,102924.49602070454,2024,,,,,,,,,,,,,,,,,unmatched,
38480312,Cukrovar Vrbátky A.S.,Animal And Vegetable Products From The Food And Beverage Sector,CZE,manufacturing,food-beverage-tobacco,49.506128,17.203389,USD,,,34999.87851039961,2024,,,,,,,,,,,,,,,,,unmatched,
38480282,Cukrovar České Meziříčí,Animal And Vegetable Products From The Food And Beverage Sector,CZE,manufacturing,food-beverage-tobacco,50.28568,16.051022,USD,,,34999.87851039961,2024,,,,,,,,,,,,,,,,,unmatched,
38480345,Drůbežářský Závod Klatovy A. S.,Animal And Vegetable Products From The Food And Beverage Sector,CZE,manufacturing,food-beverage-tobacco,49.383049,13.298954,USD,,,34999.87851039961,2024,,,,,,,,,,,,,,,,,unmatched,
38480309,Farma Nevojice,Animal And Vegetable Products From The Food And Beverage Sector,CZE,manufacturing,food-beverage-tobacco,49.140153,17.038325,USD,,,34999.87851039961,2024,,,,,,,,,,,,,,,,,unmatched,
1566770,GFG Liberty Ostrava steel plant,BOF,CZE,manufacturing,iron-and-steel,49.7928436973819,18.3216516834452,t of steel,3600000.0,0.397915534106718,2077119.088037068,2024,3600000.0,1432495.9227841848,1.188067902204511,94.0,ArcelorMittal Ostrava a.s.,ArcelorMittal Ostrava a.s.,"Ostrava, Kunčice",Czech Republic,Iron and steel,74777.0,4148000.0,2591.78,629.24,49.7958697,18.305777830556,0.52,medium,0.3453461723201988
38468986,Glazura S.R.O.,Glass Manufacturing,CZE,manufacturing,glass,50.43209,14.291716,USD,,,20110.29422882927,2024,,,,,,,,,,,,,,,,,unmatched,
38480302,Glencore Agriculture Czech S.R.O.,Animal And Vegetable Products From The Food And Beverage Sector,CZE,manufacturing,food-beverage-tobacco,50.653985,14.052872,USD,,,34999.87851039961,2024,,,,,,,,,,,,,,,,,unmatched,
38477504,Gufex S.R.O.,Finished Goods,CZE,manufacturing,textiles-leather-apparel,49.3877335,17.8812314,USD,,,41055.12162086152,2024,,,,,,,,,,,,,,,,,unmatched,
38480342,Hamé S.R.O.,Animal And Vegetable Products From The Food And Beverage Sector,CZE,manufacturing,food-beverage-tobacco,49.120379,17.468818,USD,,,34999.87851039961,2024,,,,,,,,,,,,,,,,,unmatched,
32438304,Hranice Cement Plant,integrated dry,CZE,manufacturing,cement,49.5605172797816,17.7649229827291,t of cement,1100000.00004,0.5283997995016945,394807.120211,2024,1100000.00004,581239.779473,0.29512272544687174,80.0,"Cement Hranice, akciová společnost","Cement Hranice, akciová společnost",Hranice I-Město,Czech Republic,Cement,479095.0,1035702.16,1006.93,151.03,49.561166666667,17.760955555556,0.5217391304347826,high,0.5612035987962022
38474175,Intimidea  Sro,Final Product Assembly,CZE,manufacturing,textiles-leather-apparel,49.4052328,15.5881164,USD,,,41055.12162086152,2024,,,,,,,,,,,,,,,,,unmatched,
38480341,"Jacom, Spol. S R.O.",Animal And Vegetable Products From The Food And Beverage Sector,CZE,manufacturing,food-beverage-tobacco,49.336545,17.570149,USD,,,34999.87851039961,2024,,,,,,,,,,,,,,,,,unmatched,
38468984,"Kavalierglass, A.S. Provozovna Sázava",Glass Manufacturing,CZE,manufacturing,glass,49.877138,14.908714,USD,,,20110.29422882927,2024,,,0.14805462287229323,1861.0,"KAVALIERGLASS, a.s.",KAVALIERGLASS,Sázava,Czech Republic,Glass,16834.0,,,0.0,49.876449,14.906946,0.6538461538461539,high,
38468987,"Knauf Insulation, Spol. S R.O.",Glass Manufacturing,CZE,manufacturing,glass,50.669381,13.886511,USD,,,20110.29422882927,2024,,,2.6332511863094297,1872.0,"KNAUF INSULATION, spol. s r.o.",KNAUF INSULATION,Krupka,Czech Republic,Glass,19675.0,,,0.0,50.684757,13.858089,1.0,medium,
38480344,"Litovelská Cukrovarna, A.S.",Animal And Vegetable Products From The Food And Beverage Sector,CZE,manufacturing,food-beverage-tobacco,49.709594,17.07195,USD,,,34999.87851039961,2024,,,,,,,,,,,,,,,,,unmatched,
32438306,Mokra Cement Plant,integrated dry,CZE,manufacturing,cement,49.2136957209378,16.7741774818981,t of cement,999999.99997,0.7125428858983763,559809.318281,2024,999999.99997,712542.885877,0.1970570010476256,91.0,CARMEUSE CZECH REPUBLIC s.r.o.,závod Mokrá,Mokrá,Czech Republic,Cement,115274.0,,,0.0,49.215466338889,16.774063738889,0.36363636363636365,high,
38480305,"Moravskoslezské Cukrovary, A.S.  Závod Hrušovany",Animal And Vegetable Products From The Food And Beverage Sector,CZE,manufacturing,food-beverage-tobacco,48.811221,16.404268,USD,,,34999.87851039961,2024,,,,,,,,,,,,,,,,,unmatched,
38480301,"Moravskoslezské Cukrovary, A.S. O.Z. Opava",Animal And Vegetable Products From The Food And Beverage Sector,CZE,manufacturing,food-beverage-tobacco,49.959094,17.869164,USD,,,977.0158727712446,2024,,,,,,,,,,,,,,,,,unmatched,
38468982,"O-I Manufacturing Czech Republic, A.S., Závod Nové Sedlo",Glass Manufacturing,CZE,manufacturing,glass,50.211693,12.739065,USD,,,20110.29422882927,2024,,,0.19757411435249603,1860.0,"O-I Manufacturing Czech Republic, a.s.",O-I Manufacturing - Nové Sedlo,Nové Sedlo,Czech Republic,Glass,54358.0,116212.14,186.58,37.31,50.210822,12.741485,0.8181818181818182,high,
38468991,"O-I Manufacturing Czech Republic, A.S., Závod Rudolfova Huť",Glass Manufacturing,CZE,manufacturing,glass,50.664721,13.798055,USD,,,20110.29422882927,2024,,,0.3055071530874651,1859.0,"O-I Manufacturing Czech Republic, a.s.",O-I Manufacturing - Rudolfova huť,Dubí,Czech Republic,Glass,31349.0,67021.12,107.6,21.52,50.662078,13.799239,0.7912087912087912,high,
44375502,"OP Papírna s.r.o., delfort",Pulp misc. (known types include mechanical and semi-chemical wood pulp),CZE,manufacturing,pulp-and-paper,49.9596659,16.8653919,t of pulp & paper,272160.0,0.8080645160934744,127775.16931,2024,272160.0,219922.8387,,,,,,,,,,,,,,,unmatched,
38480346,"Olma, A.S.",Animal And Vegetable Products From The Food And Beverage Sector,CZE,manufacturing,food-beverage-tobacco,49.585803,17.298728,USD,,,34999.87851039961,2024,,,,,,,,,,,,,,,,,unmatched,
38480311,Pepsico Cz S.R.O. Praha,Animal And Vegetable Products From The Food And Beverage Sector,CZE,manufacturing,food-beverage-tobacco,50.109525,14.520942,USD,,,34999.87851039961,2024,,,,,,,,,,,,,,,,,unmatched,
38475103,Personna International Cz S.R.O.,Packing| Cartridge Assembly| Moulding,CZE,manufacturing,textiles-leather-apparel,50.6604737,13.8790054,USD,,,41055.12162086152,2024,,,,,,,,,,,,,,,,,unmatched,
38480339,Pivovar Plzeň,Animal And Vegetable Products From The Food And Beverage Sector,CZE,manufacturing,food-beverage-tobacco,49.746885,13.386982,USD,,,34999.87851039961,2024,,,,,,,,,,,,,,,,,unmatched,
32438305,Prachovice Cement Plant,integrated dry,CZE,manufacturing,cement,49.8954278608157,15.639196089567,t of cement,900000.00001,0.6514911114705391,460659.59256499994,2024,900000.00001,586342.0003300001,0.08919835708511202,93.0,"Holcim (Česko) a.s., člen koncernu",Závod Prachovice,Prachovice,Czech Republic,Cement,395322.0,854602.64,830.86,124.62,49.895458611111,15.640440438889,0.6060606060606061,high,0.6860989808433076
38480304,Procházka Spol. S R. O.,Animal And Vegetable Products From The Food And Beverage Sector,CZE,manufacturing,food-beverage-tobacco,50.428069,14.285056,USD,,,34999.87851039961,2024,,,,,,,,,,,,,,,,,unmatched,
38480314,"Raciola Uherský Brod, S.R.O.",Animal And Vegetable Products From The Food And Beverage Sector,CZE,manufacturing,food-beverage-tobacco,49.023144,17.640751,USD,,,34999.87851039961,2024,,,,,,,,,,,,,,,,,unmatched,
42546160,Radotin Cement Plant,integrated dry,CZE,manufacturing,cement,49.9956970504138,14.3393698755715,t of cement,799999.9999800002,0.6536223730913403,410814.73392,2024,799999.9999800002,522897.89845999994,0.062223169691248685,90.0,"Českomoravský cement, a.s.","závod Králův Dvůr - Radotín, provozovna Radotín",Praha 5 - Radotín,Czech Republic,Cement,451484.0,976013.02,948.9,142.33,49.996187919444,14.339787819444,0.5,high,0.5357488965259909
38468979,Saint-Gobain Adfors Cz S.R.O. - Závod 1 Litomyšl,Glass Manufacturing,CZE,manufacturing,glass,49.87975,16.289931,USD,,,20110.29422882927,2024,,,0.11777251667692117,1862.0,SAINT-GOBAIN ADFORS CZ s.r.o.,SAINT-GOBAIN ADFORS CZ - Litomyšl,Litomyšl,Czech Republic,Glass,42092.0,,,0.0,49.880508,16.291079,0.8157894736842105,high,
38480306,Skaličan A.S.,Animal And Vegetable Products From The Food And Beverage Sector,CZE,manufacturing,food-beverage-tobacco,50.385798,16.037955,USD,,,34999.87851039961,2024,,,,,,,,,,,,,,,,,unmatched,
38480310,Středisko Opatovec,Animal And Vegetable Products From The Food And Beverage Sector,CZE,manufacturing,food-beverage-tobacco,49.803336,16.473611,USD,,,34999.87851039961,2024,,,,,,,,,,,,,,,,,unmatched,
32440699,TZMS Třinecké železárny Trinec steel plant,BF/BOF,CZE,manufacturing,iron-and-steel,49.6902275497972,18.6496641755199,t of steel,2800000.0,0.3983639561485053,1989424.2950973944,2024,2800000.0,1115419.0772158147,0.19574901627056218,1851.0,"Slévárny Třinec, a.s.","Slévárny Třinec, a.s.",Třinec,Czech Republic,Iron and steel,10597.0,587832.56,,0.0,49.689764,18.647039,0.41509433962264153,high,1.897511558760567
18648344,"Unipetrol, Litvinov",Flex Integrated,CZE,manufacturing,petrochemical-steam-cracking,50.568272,13.60227,t of ethylene,543999.99996,0.7185429570748928,650451.81291,2024,543999.99996,390887.36862,0.7042926415606385,82.0,"ČESKÁ RAFINÉRSKÁ, a.s.",Rafinérie Litvínov,Litvínov,Czech Republic,Refineries,394512.0,,,0.0,50.5623143,13.60565515,0.6111111111111112,high,
38468978,Vetropack Moravia Glass Akciová Společnost,Glass Manufacturing,CZE,manufacturing,glass,49.003155,17.126594,USD,,,20110.29422882927,2024,,,0.22118009947283712,1824.0,"VETROPACK MORAVIA GLASS, akciová společnost",VETROPACK MORAVIA GLASS,Kyjov,Czech Republic,Glass,66825.0,142865.38,229.37,45.87,49.004694,17.128515,1.0,high,
38468990,Vitrablok - Závod Duchcov,Glass Manufacturing,CZE,manufacturing,glass,50.598579,13.748213,USD,,,20110.29422882927,2024,,,0.011072786775741469,1814.0,"VITRABLOK, s.r.o.","VITRABLOK, s.r.o.",Duchcov,Czech Republic,Glass,28103.0,,,0.0,50.59865,13.748323,0.631578947368421,high,
38468989,Závod Barevka,Glass Manufacturing,CZE,manufacturing,glass,50.659444,13.799166,USD,,,20110.29422882927,2024,,,0.01636403474781877,1834.0,"AGC Flat Glass Czech a.s., člen AGC Group",AGC Flat Glass Czech - závod Barevka,Dubí - Pozorka,Czech Republic,Glass,19183.0,52586.14,159.51,31.9,50.659591,13.799177,0.5531914893617021,high,
38468993,Závod Desná A Polubný,Glass Manufacturing,CZE,manufacturing,glass,50.759593,15.314853,USD,,,20110.29422882927,2024,,,,,,,,,,,,,,,,,unmatched,
38467374,Závod Mokrá,Lime Production In Rotary Kilns,CZE,manufacturing,lime,49.215443,16.774047,t of lime,1141304.6596145236,0.5300950948558752,104405.87050368892,2024,1141304.6596145236,605000.0017978133,,,,,,,,,,,,,,,unmatched,
38468983,Závod Příchovice,Glass Manufacturing,CZE,manufacturing,glass,50.761503,15.325526,USD,,,20110.29422882927,2024,,,,,,,,,,,,,,,,,unmatched,
38480343,Závod Vodňany,Animal And Vegetable Products From The Food And Beverage Sector,CZE,manufacturing,food-beverage-tobacco,49.141484,14.191872,USD,,,34999.87851039961,2024,,,,,,,,,,,,,,,,,unmatched,
38468988,"Závod Řetenice, Coating, Vedení Společnosti",Glass Manufacturing,CZE,manufacturing,glass,50.640535,13.801103,USD,,,281544.1192036098,2024,,,0.013523936831754213,83.0,"AGC Flat Glass Czech a.s., člen AGC Group","závod Řetenice, Coating, Vedení společnosti",Teplice,Czech Republic,Glass,263093.0,721213.85,2187.68,437.53,50.64063215,13.801218380556,1.0,high,
38480308,"Žerotín, A.S.",Animal And Vegetable Products From The Food And Beverage Sector,CZE,manufacturing,food-beverage-tobacco,48.889306,17.304864,USD,,,34999.87851039961,2024,,,,,,,,,,,,,,,,,unmatched,
1566773,AG der Dillinger Hüttenwerke Dillingen steel plant,BF/BOF,DEU,manufacturing,iron-and-steel,49.3530201103469,6.74528835249818,t of steel,2760000.0,0.7322647449647456,3839996.322595126,2024,2760000.0,2021050.696102698,0.15388608301641252,116.0,ROGESA Roheisengesellschaft Saar mbH,ROGESA Roheisengesellschaft Saar mbH,Dillingen/Saar,Germany,Iron and steel,4223992.0,9867892.24,22794.01,1850.36,49.352136986735,6.743652602675,0.23376623376623376,high,0.20481077893314106
38480521,Adm  Mainz Gmbh,Animal And Vegetable Products From The Food And Beverage Sector,DEU,manufacturing,food-beverage-tobacco,49.973827,8.317314,USD,,,151340.05175058288,2024,,,,,,,,,,,,,,,,,unmatched,
38480538,Adm Spyck Gmbh,Animal And Vegetable Products From The Food And Beverage Sector,DEU,manufacturing,food-beverage-tobacco,51.834743,6.172017,USD,,,151340.05175058288,2024,,,,,,,,,,,,,,,,,unmatched,
38480536,Adm Spyck Gmbh Werk Straubing,Animal And Vegetable Products From The Food And Beverage Sector,DEU,manufacturing,food-beverage-tobacco,48.901901,12.659658,USD,,,151340.05175058288,2024,,,,,,,,,,,,,,,,,unmatched,
38478624,Adolf Sauter Gmbh & Co. Kg,Finished Product,DEU,manufacturing,textiles-leather-apparel,48.6955454,9.7028718,USD,,,22446.985890849952,2024,,,,,,,,,,,,,,,,,unmatched,
38469134,Agc F Glass Gmbh,Glass Manufacturing,DEU,manufacturing,glass,52.063711,11.555506,USD,,,33411.355400362845,2024,,,1.0215691232477275,1946.0,f | glass GmbH,f | glass GmbH,Osterweddingen,Germany,Glass,133680.0,235500.09,714.35,142.87,52.062819,11.570379,0.7777777777777778,medium,
32438333,Allmendingen Cement Plant,integrated dry,DEU,manufacturing,cement,48.3331703219914,9.73330639152596,t of cement,999999.99997,0.7001873792510057,340704.17685000005,2024,999999.99997,700187.3792300001,0.24766183367556807,108.0,Schwenk Zement KG,"Schwenk Zement KG, Werk Allmendingen",Allmendingen,Germany,Cement,495895.0,719761.22,699.76,104.96,48.331986283562,9.73046874793,0.5217391304347826,high,0.9728050911523132
3673194,Aluminium Norf GmbH,Non-ferrous metal smelting and alloying,DEU,manufacturing,other-metals,51.1532625664273,6.7845260829157,unitless,,,151000.0001696737,2024,,,,,,,,,,,,,,,,,unmatched,
43765081,Aluminium Oxid Stade GmbH (AOS) Alumina Refinery,Refinery,DEU,manufacturing,aluminum,53.65281,9.493854,t of alumina/aluminum,1099999.9999999998,0.6332424034877865,1278896.3580839331,2024,1099999.9999999998,696566.643836565,0.41845307756410344,2167.0,Aluminium Oxid Stade GmbH,Aluminiumoxidwerk Stade - AOS,Stade,Germany,Non-ferrous metals,415235.0,,,0.0,53.649191,9.492113,0.6764705882352942,high,
32438312,Amoneburg Cement Plant,integrated dry,DEU,manufacturing,cement,50.0322556711509,8.25738561028843,t of cement,949999.9999699998,0.456680447413369,245058.153186,2024,949999.9999699998,433846.425029,0.04725302611808511,197.0,Dyckerhoff GmbH,"Dyckerhoff GmbH, Werksgruppe Süd, Werk Amöneburg",Wiesbaden,Germany,Cement,179633.0,260726.3,253.48,38.02,50.031909564394,8.257001754448,0.3076923076923077,high,1.6639917991740765
1566776,ArcelorMittal Bremen steel plant,BF/BOF,DEU,manufacturing,iron-and-steel,53.1312378958179,8.68913865827406,t of steel,3799999.999999999,0.6824767252887731,4927481.956584941,2024,3799999.999999999,2593411.556097337,0.7195551567183928,139.0,ArcelorMittal Bremen GmbH,ArcelorMittal Bremen GmbH,Bremen,Germany,Iron and steel,2455775.0,5894265.92,11629.21,608.63,53.124930440425,8.6867285296,0.8695652173913043,high,0.4399888962080179
1566778,ArcelorMittal Duisburg steel plant,BOF,DEU,manufacturing,iron-and-steel,51.462419615216,6.74314200082803,t of steel,1299999.9999999998,0.6302673098702825,1188053.8791054825,2024,1299999.9999999998,819347.5028313671,0.453585844398046,159.0,ArcelorMittal Ruhrort GmbH,ArcelorMittal Ruhrort GmbH Werk Ruhrort,Duisburg,Germany,Iron and steel,206954.0,483476.24,933.35,30.88,51.460831804253,6.749172902452,0.6938775510204082,high,1.6947006596050451
1566775,ArcelorMittal Eisenhüttenstadt steel plant,BF/BOF,DEU,manufacturing,iron-and-steel,52.1669738304436,14.6254069840339,t of steel,2400000.0,0.6809277421770511,3105030.5043273526,2024,2400000.0,1634226.5812249226,0.5349403535154049,236.0,ArcelorMittal Eisenhüttenstadt GmbH,ArcelorMittal Eisenhüttenstadt GmbH,Eisenhüttenstadt,Germany,Iron and steel,1564346.0,3654551.84,7426.61,586.55,52.166140522249,14.61768223693,0.9090909090909091,high,0.4471756463645957
1566777,ArcelorMittal Hamburg steel plant,DRI-EAF,DEU,manufacturing,iron-and-steel,53.5230882560197,9.89986227272253,t of steel,1099999.9999999998,0.75465435705426,830119.7927596858,2024,1099999.9999999998,830119.7927596858,0.18907841538102274,124.0,ArcelorMittal Duisburg GmbH,ArcelorMittal Hamburg GmbH,Hamburg,Germany,Iron and steel,419519.0,1146768.93,710.75,48.2,53.524784970533,9.900051078411,0.875,high,0.723877122097898
38469064,Ardagh Glass Gmbh,Glass Manufacturing,DEU,manufacturing,glass,52.660305,9.214709,USD,,,33411.35540036284,2024,,,,,,,,,,,,,,,,,unmatched,
38469092,Ardagh Glass Gmbh,Glass Manufacturing,DEU,manufacturing,glass,51.626076,7.512943,USD,,,33411.355400362845,2024,,,0.7974029319823787,2023.0,Ardagh Glass GmbH,Werk Lünen,Lünen,Germany,Glass,50814.0,85495.88,137.26,27.45,51.621611,7.521982,1.0,high,
38469113,Ardagh Glass Gmbh,Glass Manufacturing,DEU,manufacturing,glass,53.946107,10.194237,USD,,,33411.355400362845,2024,,,0.37747453234080713,2024.0,Ardagh Glass GmbH,Werk Wahlstedt,Wahlstedt,Germany,Glass,36962.0,62189.53,99.84,19.96,53.948274,10.198677,1.0,high,
38469050,Ardagh Glass Gmbh,Glass Manufacturing,DEU,manufacturing,glass,52.536864,13.713597,USD,,,33411.35540036284,2024,,,0.19774593278143837,1937.0,Ardagh Glass GmbH,Werk Neuenhagen,Neuenhagen,Germany,Glass,42789.0,71993.61,115.58,23.11,52.537657,13.71098,1.0,high,
38469051,Ardagh Glass Gmbh,Glass Manufacturing,DEU,manufacturing,glass,51.649411,14.2294,USD,,,33411.355400362845,2024,,,0.11119734109610868,2341.0,Ardagh Glass GmbH,Werk Drebkau,Drebkau,Germany,Glass,45156.0,75976.15,121.98,24.39,51.649469,14.231009,1.0,high,
38469068,Ardagh Glass Gmbh Werk Bad Münder,Glass Manufacturing,DEU,manufacturing,glass,52.192248,9.446852,USD,,,33411.355400362845,2024,,,1.232712730381964,2359.0,Ardagh Glass GmbH,Werk Bad Münder,Bad Münder,Germany,Glass,17931.0,30169.37,48.43,9.68,52.193399,9.464839,0.6857142857142857,medium,
38469066,Ardagh Glass Gmbh Werk Obernkirchen,Glass Manufacturing,DEU,manufacturing,glass,52.264368,9.140727,USD,,,146311.3947680092,2024,,,4.6966472183090354e-05,131.0,Ardagh Glass GmbH,Ardagh Glass GmbH,Obernkirchen,Germany,Glass,62991.0,105984.0,170.16,34.03,52.264368317363,9.140727455412,0.6486486486486487,high,
38469095,Ardagh Group,Glass Manufacturing,DEU,manufacturing,glass,49.233083,8.374951,USD,,,111524.07013785314,2024,,,0.004349470395203525,206.0,Ardagh Group,Ardagh Group,Germersheim,Germany,Glass,105281.0,177138.03,284.4,56.88,49.233109528348,8.374906978646,1.0,high,
3673201,Aurubis AG,Non-ferrous crude metal production,DEU,manufacturing,other-metals,53.5216322071928,10.0332724732957,unitless,,,164000.00018428138,2024,,,0.4207536241933625,266.0,Aurubis AG,Aurubis AG,Hamburg,Germany,Non-ferrous metals,186620.0,,,0.0,53.51798533191,10.03496984712,1.0,high,
3673202,Aurubis AG,Non-ferrous crude metal production,DEU,manufacturing,other-metals,51.6040261582496,7.50788747844793,unitless,,,162000.00018203404,2024,,,0.28535802373428704,192.0,Aurubis AG,Aurubis AG,Lünen,Germany,Non-ferrous metals,169134.0,,,0.0,51.606590820622,7.508034454389,1.0,high,
18648353,"BASF AG , Ludwigshafen ",Naphtha,DEU,manufacturing,petrochemical-steam-cracking,49.530256,8.422265,t of ethylene,620000.00004,0.75351499988687,910819.81923,2024,620000.00004,467179.29996,0.2187611465711439,278.0,BASF,BASF SE,Ludwigshafen,Germany,Chemical industry,3974214.0,,,0.0,49.52909984099,8.424717491624,0.5833333333333334,high,
18648354,"BP Gelsenkirchen , Gelsenkirchen ",Flex Integrated,DEU,manufacturing,petrochemical-steam-cracking,51.539311,7.042823,t of ethylene,1073000.0000399998,0.7535149999346316,1345411.43925,2024,1073000.0000399998,808521.5949600001,0.3900835131412945,1408.0,RUHR OEL GMBH,Ruhr Oel GmbH Werk Horst,Gelsenkirchen,Germany,Refineries,,,,0.0,51.539606950463,7.037202843795,0.18181818181818182,high,
18648352,"Basell Polyfine GMBH , Wesseling ",Naphtha,DEU,manufacturing,petrochemical-steam-cracking,50.833333,6.966944,t of ethylene,1040000.0000399998,0.7535149999325574,1527826.79352,2024,1040000.0000399998,783655.5999600003,0.6122521703453669,1997.0,Evonik Röhm GmbH,SK-MMA-Anlage,Wesseling,Germany,Chemical industry,95370.0,,,0.0,50.831637,6.975238,0.16666666666666666,high,
32438330,Beckum Cement Plant,integrated dry,DEU,manufacturing,cement,51.7587986195122,8.07279866630518,t of cement,500000.0000400001,0.5826589679733872,99662.359838,2024,500000.0000400001,291329.48401,0.16296748429044708,263.0,Phoenix Zementwerke Krogbeumker,Phoenix Zementwerke Krogbeumker,Beckum,Germany,Cement,259013.0,375941.51,365.49,54.82,51.760245964415,8.07317124218,0.3181818181818182,high,0.7749330048974906
32438328,Beckum-Kollenbach Cement Plant,integrated dry,DEU,manufacturing,cement,51.7654625243113,8.05631118333764,t of cement,1249999.9997499995,0.5095515327587105,162846.93738629998,2024,1249999.9997499995,636939.4158209999,0.16031623501631945,171.0,Holcim WestZement GmbH,Holcim WestZement GmbH Werk: Kollenbach,Beckum,Germany,Cement,614274.0,891581.09,866.81,130.02,51.765173727029,8.054028787701,0.5,high,0.7143931415380287
1566785,Benteler Steel Tube Lingen plant,EAF,DEU,manufacturing,iron-and-steel,52.4676256350036,7.3176976407442,t of steel,649999.9999999999,0.7546543570542599,39242.02656682151,2024,649999.9999999999,490525.3320852688,,,,,,,,,,,,,,,unmatched,
32438332,Bernburg Cement Plant,integrated dry,DEU,manufacturing,cement,51.8166173773161,11.7379651445116,t of cement,859999.99997,0.5994895995697496,350194.84700699995,2024,859999.99997,515561.05561199994,0.8034196092112883,242.0,Schwenk Zement KG,"SCHWENK Zement KG, Werk Bernburg",Bernburg,Germany,Cement,672763.0,976474.3,949.35,142.4,51.816375212631,11.749646599985,0.5517241379310345,high,0.5279822066100459
38474135,Biess Textil-Applikationen Gmbh.,Final Product Assembly,DEU,manufacturing,textiles-leather-apparel,48.0302934,11.5851453,USD,,,22446.985890849952,2024,,,,,,,,,,,,,,,,,unmatched,
38480509,Brauerei Diebels Gmbh & Co. Kg,Animal And Vegetable Products From The Food And Beverage Sector,DEU,manufacturing,food-beverage-tobacco,51.532983,6.421499,USD,,,151340.05175058288,2024,,,,,,,,,,,,,,,,,unmatched,
38477189,Breitex Gmbh,Cut & Sew|Cutting|Screen Printing|Washing|Ironing|Knit Composite|Packaging|Product Finishing|Quality Control,DEU,manufacturing,textiles-leather-apparel,50.74893,12.9900099,USD,,,22446.985890849952,2024,,,,,,,,,,,,,,,,,unmatched,
45257234,Brunsbüttel,ammonia,DEU,manufacturing,chemicals,53.9140811,9.1161823,t of chemical,1570000.0000000002,0.5862068965517238,3524920.6896551717,2024,1570000.0000000002,920344.8275862064,2.739670522321545,117.0,Sasol Germany GmbH,Sasol Germany GmbH,Brunsbüttel,Germany,Chemical industry,149825.0,,,0.0,53.912877499535,9.157962897906,0.16666666666666666,low,
38480517,Brökelmann + Co Oelmühle Gmbh + Co,Animal And Vegetable Products From The Food And Beverage Sector,DEU,manufacturing,food-beverage-tobacco,51.658808,7.838213,USD,,,151340.05175058288,2024,,,,,,,,,,,,,,,,,unmatched,
38480535,Bunge Deutschland Gmbh,Animal And Vegetable Products From The Food And Beverage Sector,DEU,manufacturing,food-beverage-tobacco,49.506863,8.450283,USD,,,151340.05175058288,2024,,,,,,,,,,,,,,,,,unmatched,
32438316,Burglengenfeld Cement Plant,integrated dry,DEU,manufacturing,cement,49.2131819505009,12.0300078626401,t of cement,1100000.00004,0.5104424717359839,381389.85383,2024,1100000.00004,561486.71893,0.13298790942073965,220.0,HeidelbergCement AG,"HeidelbergCement AG, Zementwerk Burglengenfeld",Burglengenfeld,Germany,Cement,902951.0,1310578.09,1274.17,191.12,49.212832444196,12.028256950675,0.4864864864864865,high,0.42842675550145964
38480540,Böklunder Fleischwarenfabrik Gmbh & Co. Kg,Animal And Vegetable Products From The Food And Beverage Sector,DEU,manufacturing,food-beverage-tobacco,54.603413,9.586199,USD,,,151340.05175058288,2024,,,,,,,,,,,,,,,,,unmatched,
1566784,CSN Stahlwerk Thüringen Unterwellenborn steel plant,EAF,DEU,manufacturing,iron-and-steel,50.6550946481609,11.4351991903788,t of steel,1099999.9999999998,0.75465435705426,66409.58342077486,2024,1099999.9999999998,830119.7927596858,0.1880992657887265,265.0,Stahlwerk Thüringen GmbH,Stahlwerk Thüringen GmbH,Unterwellenborn,Germany,Iron and steel,101588.0,442354.81,15.39,7.38,50.65350466949,11.434288262033,0.59375,high,1.8765926672294708
38480554,Cargill Deutschland Gmbh,Animal And Vegetable Products From The Food And Beverage Sector,DEU,manufacturing,food-beverage-tobacco,51.983315,11.875674,USD,,,151340.05175058288,2024,,,,,,,,,,,,,,,,,unmatched,
38480508,Cargill Deutschland Gmbh,Animal And Vegetable Products From The Food And Beverage Sector,DEU,manufacturing,food-beverage-tobacco,51.337549,6.661029,USD,,,118875.81005270594,2024,,,,,,,,,,,,,,,,,unmatched,
38480529,Cargill Gmbh,Animal And Vegetable Products From The Food And Beverage Sector,DEU,manufacturing,food-beverage-tobacco,52.192199,10.426068,USD,,,151340.05175058288,2024,,,,,,,,,,,,,,,,,unmatched,
38480550,Cargill Gmbh,Animal And Vegetable Products From The Food And Beverage Sector,DEU,manufacturing,food-beverage-tobacco,51.30161,13.291514,USD,,,151340.05175058288,2024,,,,,,,,,,,,,,,,,unmatched,
38480478,Cargill Gmbh,Animal And Vegetable Products From The Food And Beverage Sector,DEU,manufacturing,food-beverage-tobacco,50.027906,8.227229,USD,,,151340.05175058288,2024,,,,,,,,,,,,,,,,,unmatched,
38480515,Coppenrath & Wiese Gmbh & Co. Kg,Animal And Vegetable Products From The Food And Beverage Sector,DEU,manufacturing,food-beverage-tobacco,52.313251,7.798942,USD,,,151340.05175058288,2024,,,,,,,,,,,,,,,,,unmatched,
38476958,Corsina Europe Gmbh,Final Product Assembly,DEU,manufacturing,textiles-leather-apparel,48.78689,9.93691,USD,,,22446.98589084995,2024,,,,,,,,,,,,,,,,,unmatched,
38480530,Cremilk Gmbh,Animal And Vegetable Products From The Food And Beverage Sector,DEU,manufacturing,food-beverage-tobacco,54.655012,9.93491,USD,,,151340.05175058288,2024,,,,,,,,,,,,,,,,,unmatched,
38480531,Crespel & Deiters Gmbh & Co.Kg,Animal And Vegetable Products From The Food And Beverage Sector,DEU,manufacturing,food-beverage-tobacco,52.26462,7.70549,USD,,,151340.05175058288,2024,,,,,,,,,,,,,,,,,unmatched,
38477043,Deichmann Se,Final Product Assembly,DEU,manufacturing,textiles-leather-apparel,51.4617581,6.9281721,USD,,,22446.98589084995,2024,,,,,,,,,,,,,,,,,unmatched,
1896592,Deuna Cement Plant,integrated dry,DEU,manufacturing,cement,51.362277292066,10.4811076435298,t of cement,1999999.9999,0.7112997951190649,363717.45979699993,2024,1999999.9999,1422599.590167,0.17906342219586505,255.0,Deuna Zement GmbH,Deuna Zement GmbH,Deuna,Germany,Cement,993541.0,1442063.92,1402.0,210.3,51.362759732841,10.483568267981,0.9166666666666666,high,0.9865024500210782
1566788,Deutsche Edelstahlwerke steel plant,EAF,DEU,manufacturing,iron-and-steel,50.9155366619083,8.01640737211641,t of steel,600000.0,0.7546543570542598,36223.409138604475,2024,600000.0,452792.61423255585,0.2540513946336578,188.0,Deutsche Edelstahlwerke GmbH,Deutsche Edelstahlwerke GmbH Werk Siegen,Siegen,Germany,Iron and steel,121642.0,474755.75,24.62,11.81,50.917370904773,8.014246705028,0.9152542372881356,high,0.9537380310455552
1896617,Dotternhausen Cement Plant,integrated dry,DEU,manufacturing,cement,48.2275715767427,8.77983697538782,t of cement,1100000.00004,0.7112528500650452,397174.2602800001,2024,1100000.00004,782378.1351,0.08055895542089532,112.0,Holcim (Süddeutschland) GmbH,Holcim (Süddeutschland) GmbH,Dotternhausen,Germany,Cement,700686.0,1016687.21,988.44,148.26,48.227041212247,8.779096107714,0.14634146341463414,high,0.7695367143450147
18648357,"Dow Chemical Co. , Bohlen ",Flex Standalone,DEU,manufacturing,petrochemical-steam-cracking,51.394126,11.974703,t of ethylene,564999.99996,0.7535150001241426,737320.7092800002,2024,564999.99996,425735.9750400001,2.924340965989871,241.0,Dow Olefinverbund GmbH,"Dow Olefinverbund GmbH, Werk Schkopau",Schkopau,Germany,Chemical industry,86944.0,,,0.0,51.400987112375,11.934010662973,0.4444444444444444,medium,
32438309,Dykerhoff Geseke Cement Plant,integrated dry,DEU,manufacturing,cement,51.6224230186466,8.50309807523907,t of cement,379999.99999,0.6023248611684823,155469.081545,2024,379999.99999,228883.447238,0.09068413171001227,182.0,Dyckerhoff GmbH,"Dyckerhoff Werksgruppe Nord, Werk Geseke",Geseke,Germany,Cement,223115.0,323837.76,314.84,47.22,51.622560518514,8.504392880848,0.5614035087719298,high,0.7067843084080127
44375507,"Dynos GmbH, Niederlassung Bad Durkheim",Semi-chemical wood pulp,DEU,manufacturing,pulp-and-paper,49.4515534,8.0629732,t of pulp & paper,199499.99999,0.8262882204925458,95774.65449699998,2024,199499.99999,164844.49998000002,,,,,,,,,,,,,,,unmatched,
1566786,ESF Elbe Stahlwerke Feralpi Riesa plant,EAF,DEU,manufacturing,iron-and-steel,51.3130887460788,13.2770101168078,t of steel,1400000.0,0.7546543570542597,84521.28799007711,2024,1400000.0,1056516.0998759635,0.05705165785707599,274.0,ESF Elbe-Stahlwerke Feralpi GmbH,ESF Elbe-Stahlwerke Feralpi GmbH,Riesa,Germany,Iron and steel,93384.0,321913.22,23.7,11.37,51.313064595831,13.277830046886,0.9,high,3.281990406843073
38480552,Eipro-Vermarktung Gmbh & Co. Kg,Animal And Vegetable Products From The Food And Beverage Sector,DEU,manufacturing,food-beverage-tobacco,52.659092,8.204994,USD,,,151340.05175058288,2024,,,,,,,,,,,,,,,,,unmatched,
38473057,Emil Kiessling Gmbh,Finished Goods,DEU,manufacturing,textiles-leather-apparel,49.1763057,11.0027151,USD,,,22446.98589084995,2024,,,,,,,,,,,,,,,,,unmatched,
32438317,Ennigerloh Cement Plant,integrated dry,DEU,manufacturing,cement,51.857620513076,8.03065346643537,t of cement,999999.99997,0.5654052940999622,193422.324086,2024,999999.99997,565405.294083,0.07143416800264388,1407.0,HeidelbergCement AG,HeidelbergCement AG Zementwerk Ennigerloh,Ennigerloh,Germany,Cement,,643171.48,625.3,93.79,51.858260955935,8.030571862377,0.6060606060606061,high,0.8790894989358049
3673051,Essen aluminium plant,Smelting,DEU,manufacturing,aluminum,51.493167,6.963494,t of alumina/aluminum,85000.0,0.8650963597430409,183832.97644539617,2024,85000.0,73533.19057815848,0.4743250233295155,150.0,TRIMET Aluminium SE,TRIMET Aluminium SE,Essen,Germany,Non-ferrous metals,281099.0,,,0.0,51.490049173793,6.968169747809,0.6470588235294118,high,
44375511,Essity Operations Mannheim GmbH,Pulp misc. (known types include mechanical and semi-chemical wood pulp),DEU,manufacturing,pulp-and-paper,49.5342827,8.4594229,t of pulp & paper,199499.99999,0.8262882204925458,95774.65449699998,2024,199499.99999,164844.49998000002,0.2164958487698164,103.0,SCA Hygiene Products GmbH Consumer Products,SCA Hygiene Products GmbH Consumer Products,Mannheim,Germany,Paper and printing,203327.0,782215.74,1195.05,119.5,49.535498641378,8.457079832046,0.21875,high,0.21074045375256706
38469119,Euroglas Ag,Glass Manufacturing,DEU,manufacturing,glass,52.057558,11.58079,USD,,,103338.8172836988,2024,,,0.001727150118103775,276.0,EUROGLAS AG,EUROGLAS AG,Osterweddingen,Germany,Glass,138518.0,244023.05,740.2,148.04,52.057572158152,11.580779610432,1.0,high,
38469121,Euroglas Gmbh,Glass Manufacturing,DEU,manufacturing,glass,52.274411,11.440182,USD,,,131987.20227323906,2024,,,0.001520564872057971,243.0,EUROGLAS GmbH,EUROGLAS GmbH,Haldensleben,Germany,Glass,119698.0,210868.41,639.63,127.92,52.274424658413,11.440183092722,1.0,high,
38467587,Fels-Werke Gmbh,Lime Production In Rotary Kilns,DEU,manufacturing,lime,52.486448,13.830047,t of lime,357993.4494593065,0.5300950948558751,194165.5589378316,2024,357993.4494593065,189770.57154891305,,,,,,,,,,,,,,,unmatched,
38467583,"Fels-Werke Gmbh, Kalkwerk Saal",Lime Production In Rotary Kilns,DEU,manufacturing,lime,48.890591,11.934025,t of lime,619532.7052819086,0.530095094855875,336017.0812706516,2024,619532.7052819086,328411.2481727302,,,,,,,,,,,,,,,unmatched,
38480542,Franz Wiltmann Gmbh & Co. Kg Westfälische Fleischwarenfabrik,Animal And Vegetable Products From The Food And Beverage Sector,DEU,manufacturing,food-beverage-tobacco,52.00799,8.105025,USD,,,151340.05175058288,2024,,,,,,,,,,,,,,,,,unmatched,
44375510,GRuNPERGA Papier GmbH,Mechanical and semi-chemical wood pulp,DEU,manufacturing,pulp-and-paper,50.7786198,13.1594074,t of pulp & paper,65372.881356,0.8262882205672013,31383.785094000006,2024,65372.881356,54016.841809000005,0.0489883044391667,1918.0,Grünperga Papier GmbH,Papierfabrik Grünperga,Grünhainichen,Germany,Paper and printing,14095.0,54224.62,82.84,8.28,50.778814,13.158782,0.9375,high,0.9961681946134432
38477402,Gebr. Conzelmann Gmbh & Co.Kg,Final Product Assembly,DEU,manufacturing,textiles-leather-apparel,48.2501075,9.0166772,USD,,,22446.98589084995,2024,,,,,,,,,,,,,,,,,unmatched,
42741860,Georgsmarienhütte Osnabrück steel plant,EAF,DEU,manufacturing,iron-and-steel,52.2094721461794,8.04644859003109,t of steel,649999.9999999999,0.7546543570542599,39242.02656682151,2024,649999.9999999999,490525.3320852688,0.21116073238940897,136.0,Georgsmarienhütte Holding GmbH,Georgsmarienhütte GmbH,Georgsmarienhütte,Germany,Iron and steel,143456.0,335135.18,29.64,14.23,52.209144397156,8.049501107037,0.6896551724137931,high,1.4636641014090757
32267402,Germany,soda_ash,DEU,manufacturing,chemicals,51.13372269040778,10.288485092742851,t of chemical,2521579.9999999995,0.7983190593885516,855535.7838535181,2024,2521579.9999999995,2013025.3737729837,,,,,,,,,,,,,,,unmatched,
38469111,Gerresheimer Essen Gmbh,Glass Manufacturing,DEU,manufacturing,glass,51.438605,7.088215,USD,,,33411.355400362845,2024,,,0.2962163624519488,2314.0,Gerresheimer Essen GmbH,Glasfabrik Essen,Essen,Germany,Glass,45468.0,76501.09,122.82,24.56,51.441176,7.087096,1.0,high,
38469060,Gerresheimer Lohr Gmbh,Glass Manufacturing,DEU,manufacturing,glass,49.983952,9.578945,USD,,,33411.355400362845,2024,,,0.5285944085080247,2305.0,Gerresheimer Lohr GmbH,Glasfabrik Lohr,Lohr am Main,Germany,Glass,60274.0,101412.58,162.82,32.56,49.980056,9.583181,1.0,high,
38469150,Gerresheimer Tettau Gmbh,Glass Manufacturing,DEU,manufacturing,glass,50.457747,11.264414,USD,,,33411.355400362845,2024,,,0.17749741956613369,2362.0,Gerresheimer Tettau GmbH,Glasfabrik Tettau,Tettau,Germany,Glass,40324.0,67846.18,108.93,21.78,50.459333,11.26413,1.0,high,
38480532,Gilde Brauerei Gmbh,Animal And Vegetable Products From The Food And Beverage Sector,DEU,manufacturing,food-beverage-tobacco,52.354796,9.753487,USD,,,151340.05175058288,2024,,,,,,,,,,,,,,,,,unmatched,
38469062,Glasfaserherstellungsanlage - Saint-Gobain Isover G+H Ag Werk Lübz,Glass Manufacturing,DEU,manufacturing,glass,53.475238,12.024809,USD,,,33411.355400362845,2024,,,0.11663253495695738,2154.0,Saint-Gobain Isover G+H AG,Werk Lübz,Lübz,Germany,Glass,21165.0,,,0.0,53.475362,12.026559,0.5822784810126582,high,
38469106,Glaswerk Ernstthal Gmbh,Glass Manufacturing,DEU,manufacturing,glass,50.489944,11.172166,USD,,,33411.35540036284,2024,,,0.991363590438379,2013.0,Lauscha Fiber International GmbH,Anlage zur Herst. von Glas und Mikrofasern Lauscha,Lauscha,Germany,Glass,15488.0,,,0.0,50.485315,11.16019,0.5333333333333333,high,
38480543,Glencore Magdeburg Gmbh,Animal And Vegetable Products From The Food And Beverage Sector,DEU,manufacturing,food-beverage-tobacco,52.194041,11.682746,USD,,,151340.05175058288,2024,,,,,,,,,,,,,,,,,unmatched,
38469128,Gmb Glasmanufaktur Brandenburg Gmbh,Glass Manufacturing,DEU,manufacturing,glass,51.57587,14.604819,USD,,,33411.355400362845,2024,,,0.22174209049055815,2340.0,GMB Glasmanufaktur Brandenburg GmbH,Solarglaswerk Tschernitz,Tschernitz,Germany,Glass,39061.0,68812.6,208.73,41.74,51.574495,14.607143,1.0,high,
1896594,Gollheim Cement Plant,integrated dry,DEU,manufacturing,cement,49.601992483041,8.0370452916598,t of cement,799999.9999800002,0.5104866612877621,277398.45174,2024,799999.9999800002,408389.32902000006,0.33047092857075056,205.0,Werksgruppe Süd Dyckerhoff,Dyckerhoff GmbH,Göllheim,Germany,Cement,639684.0,928462.15,902.67,135.4,49.601018854303,8.041377942296,0.0975609756097561,high,0.4398556570345922
38469100,Guardian Flachglas Gmbh,Glass Manufacturing,DEU,manufacturing,glass,51.651228,12.24341,USD,,,130964.04566646974,2024,,,0.0016312480822665016,244.0,GUARDIAN Flachglas GmbH,GUARDIAN Flachglas GmbH,Thalheim,Germany,Glass,118199.0,208227.67,631.62,126.32,51.65123267524,12.243387588332,1.0,high,
38474564,Guetermann Gmbh,Yarn Dye|Continuous Dye|Cold-Pad-Batch Dyeing|Digital Print,DEU,manufacturing,textiles-leather-apparel,48.11277,7.98325,USD,,,22446.985890849952,2024,,,,,,,,,,,,,,,,,unmatched,
38480549,H. & J. Brüggen Kg,Animal And Vegetable Products From The Food And Beverage Sector,DEU,manufacturing,food-beverage-tobacco,53.880086,10.692115,USD,,,151340.05175058288,2024,,,,,,,,,,,,,,,,,unmatched,
38480539,Hage Produktions Ag,Animal And Vegetable Products From The Food And Beverage Sector,DEU,manufacturing,food-beverage-tobacco,54.294693,9.677788,USD,,,151340.05175058288,2024,,,,,,,,,,,,,,,,,unmatched,
3673050,Hamburg aluminium plant,Smelting,DEU,manufacturing,aluminum,53.512134,9.892576,t of alumina/aluminum,67000.0,0.8650963597430409,144903.6402569593,2024,67000.0,57961.45610278374,0.356013792724687,123.0,"TRIMET ALUMINIUM SE, Niederlassung Hamburg","TRIMET ALUMINIUM SE, Niederlassung Hamburg",Hamburg,Germany,Non-ferrous metals,261080.0,,,0.0,53.512395480538,9.887209801551,0.3793103448275862,high,
1896608,Hannover Cement Plant,integrated dry,DEU,manufacturing,cement,52.3749507578749,9.877094633034,t of cement,700000.0000199998,0.5882463102260503,140865.28504800002,2024,700000.0000199998,411772.41717,0.23674109055490164,2203.0,HeidelbergCement AG,Zementwerk Hannover,Niedersachsen,Germany,Cement,447247.0,648464.59,630.45,94.56,52.376283,9.879815,0.5806451612903226,high,0.6349959944150535
38477569,Hanskruchen Gmbh,Cut & Sew|Washing|Packaging|Product Finishing|Filling,DEU,manufacturing,textiles-leather-apparel,51.165691,10.451526,USD,,,22446.98589084995,2024,,,,,,,,,,,,,,,,,unmatched,
32438329,Harburg Cement Plant,integrated dry,DEU,manufacturing,cement,48.7767109030793,10.6987005636817,t of cement,999999.99997,0.510799058235324,346960.26029999997,2024,999999.99997,510799.05822000006,0.0880651032663929,100.0,Märker Zement GmbH,Märker Kalk GmbH,Blaustein,Germany,Cement,160329.0,,,0.0,48.776747,10.6975,0.5925925925925926,high,
32438323,Heidelberg Geseke Cement Plant,integrated dry,DEU,manufacturing,cement,51.6186036741443,8.51081586438816,t of cement,900000.00001,0.5178896079898012,159450.7009134,2024,900000.00001,466100.647196,0.02814651295949484,181.0,HeidelbergCement AG HeidelbergCement AG,HeidelbergCement AG - Zementwerk Geseke (Milke),Geseke,Germany,Cement,639608.0,927369.31,901.6,135.24,51.618837296044,8.510658929854,0.59375,high,0.502605210426901
44375506,Heinrich Schaller Pappenfabrik e.K.,Pulp misc.,DEU,manufacturing,pulp-and-paper,50.0210149,12.0200894,t of pulp & paper,199499.99999,0.8262882204925458,95774.65449699998,2024,199499.99999,164844.49998000002,,,,,,,,,,,,,,,unmatched,
38469103,Heraeus Quarzglas Gmbh & Co. Kg,Glass Manufacturing,DEU,manufacturing,glass,51.638193,12.302419,USD,,,33411.355400362845,2024,,,,,,,,,,,,,,,,,unmatched,
38477601,Hirsch Natur Gmbh,Washing|Ironing|Knit Composite|Packaging|Product Finishing|Dying|Sewing,DEU,manufacturing,textiles-leather-apparel,52.05880459999999,7.3622936,USD,,,22446.985890849952,2024,,,,,,,,,,,,,,,,,unmatched,
1896619,Hover Cement Plant,integrated dry,DEU,manufacturing,cement,52.3529880409205,9.88824496974665,t of cement,999999.99997,0.5009061962150271,128067.18807199998,2024,999999.99997,500906.1961999999,0.384512080761844,129.0,Holcim (Deutschland) AG Werk Höver,Holcim (Deutschland) AG Werk Höver,Sehnde,Germany,Cement,624695.0,906706.54,881.52,132.22,52.3498313041,9.885933871191,0.2777777777777778,high,0.5524457739104869
3673372,Hydro Aluminium Rolled Products GmbH Rheinwerk,Non-ferrous crude metal production,DEU,manufacturing,other-metals,51.1536852558066,6.7835762834351,unitless,,,286000.0003213687,2024,,,,,,,,,,,,,,,,,unmatched,
1566772,Hüttenwerke Krupp Mannesmann (HKM) steel plant,BF/BOF,DEU,manufacturing,iron-and-steel,51.3688861770941,6.71444217243744,t of steel,6300000.0,0.6036595713681704,7225805.069277,2024,6300000.0,3803055.2996194735,0.16762720735794498,143.0,Hüttenwerke Krupp Mannesmann GmbH,Hüttenwerke Krupp Mannesmann GmbH,Duisburg,Germany,Iron and steel,4666233.0,10901034.95,24516.17,1494.55,51.368231167703,6.712267332095,0.8484848484848485,high,0.34887103078405174
18648355,"INEOS , Dormagen ",Naphtha,DEU,manufacturing,petrochemical-steam-cracking,51.06716,6.84594,t of ethylene,1155000.0,0.753515,1696769.1792599997,2024,1155000.0,870309.8250000001,0.0771114883377994,269.0,INEOS Manufacturing Deutschland GmbH,INEOS Köln GmbH,Köln,Germany,Chemical industry,2202742.0,,,0.0,51.067636023808,6.846742503362,0.5833333333333334,high,
45257233,INEOS Nitriles Cologne,ammonia,DEU,manufacturing,chemicals,51.0723534866003,6.85601303697041,t of chemical,350000.0,0.586206896551724,785810.344827586,2024,350000.0,205172.4137931034,0.8335090856629032,269.0,INEOS Manufacturing Deutschland GmbH,INEOS Köln GmbH,Köln,Germany,Chemical industry,2202742.0,,,0.0,51.067636023808,6.846742503362,0.4528301886792453,high,
38477730,In-Fashion Herrenbekleidung Gmbh,Final Product Assembly,DEU,manufacturing,textiles-leather-apparel,49.71224,9.21248,USD,,,22446.985890849952,2024,,,,,,,,,,,,,,,,,unmatched,
38476273,Kaiser Bekleidungs-Gmbh,Final Product Assembly,DEU,manufacturing,textiles-leather-apparel,49.71224,9.21248,USD,,,22446.98589084995,2024,,,,,,,,,,,,,,,,,unmatched,
38467588,Kalkwerke H. Oetelshofen Gmbh & Co. Kg,Lime Production In Rotary Kilns,DEU,manufacturing,lime,51.248149,7.041902,t of lime,450737.8664176761,0.5300950948558751,244467.5172118813,2024,450737.8664176761,238933.9320538128,,,,,,,,,,,,,,,unmatched,
38480477,"Kampffmeyer Mühlen Gmbh, Werk Ellmühle",Animal And Vegetable Products From The Food And Beverage Sector,DEU,manufacturing,food-beverage-tobacco,50.925589,6.977555,USD,,,151340.05175058288,2024,,,,,,,,,,,,,,,,,unmatched,
38480475,Karlsberg Brauerei Gmbh .,Animal And Vegetable Products From The Food And Beverage Sector,DEU,manufacturing,food-beverage-tobacco,49.3245,7.346041,USD,,,151340.05175058288,2024,,,,,,,,,,,,,,,,,unmatched,
32438335,Karlstadt Cement Plant,integrated dry,DEU,manufacturing,cement,49.95398520895,9.77093568618336,t of cement,1200000.00027,0.4229022030831803,344707.585808,2024,1200000.00027,507482.6438139999,0.20726852124950768,227.0,Schwenk Zement KG,"SCHWENK Zement KG, Werk Karlstadt",Karlstadt,Germany,Cement,587064.0,852087.45,828.41,124.26,49.955004881975,9.768510452256,0.4666666666666667,high,0.5955757754840773
1896600,Karsdorf Cement Plant,integrated dry,DEU,manufacturing,cement,51.2696298176477,11.6611740785651,t of cement,1400000.0003000002,0.6938076384727554,763125.95981,2024,1400000.0003000002,971330.69407,0.47942016126507675,246.0,LAFARGE Zement GmbH Oberursel,LAFARGE Zement Karsdorf GmbH,Karsdorf,Germany,Cement,882556.0,1280975.99,1245.39,186.8,51.271111777398,11.65470263037,0.42105263157894735,high,0.7582739267970198
44375515,Katz GmbH & Co. KG,Chemical wood pulp; Mechanical and semi-chemical wood pulp; Mechanical wood pulp,DEU,manufacturing,pulp-and-paper,48.7236271,8.3557998,t of pulp & paper,199499.99999,0.8262882204925458,95774.65449699998,2024,199499.99999,164844.49998000002,0.01114560359659153,2105.0,Katz GmbH & Co. KG,Pappenwerk Weisenbach,Weisenbach,Germany,Paper and printing,5124.0,19712.45,30.11,3.01,48.723723,8.355844,1.0,high,8.36245621320536
1566779,Kehler Baden Steel Works,EAF,DEU,manufacturing,iron-and-steel,48.5982814201553,7.82205624647558,t of steel,2500000.0,0.7546543570542595,150930.87141085192,2024,2500000.0,1886635.8926356488,0.46324835826507205,2080.0,Badische Stahlwerke GmbH,Walzwerk,Kehl,Germany,Iron and steel,67711.0,385855.42,,0.0,48.594136,7.822683,0.46511627906976744,high,4.889489157974375
38480476,Kellogg (Deutschland) Gmbh,Animal And Vegetable Products From The Food And Beverage Sector,DEU,manufacturing,food-beverage-tobacco,53.08486,8.77745,USD,,,151340.05175058288,2024,,,,,,,,,,,,,,,,,unmatched,
18648359,"Klesch, Heide",Flex Integrated,DEU,manufacturing,petrochemical-steam-cracking,54.157278,9.074751,t of ethylene,110000.00004000004,0.7535149993623578,137926.61538,2024,110000.00004000004,82886.64995999998,0.5129107670948673,119.0,Klesch Group LTD und Klesch Petroleum Holdings LTD,Raffinerie Heide GmbH,Hemmingstedt,Germany,Refineries,955087.0,,,0.0,54.160831208767,9.079774431879,0.5,high,
38469126,Knauf Insulation Gmbh,Glass Manufacturing,DEU,manufacturing,glass,51.803471,11.700335,USD,,,33411.355400362845,2024,,,0.2611967019485175,2395.0,Knauf Insulation GmbH,Werk Bernburg,Bernburg,Germany,Glass,28609.0,,,0.0,51.801235,11.699171,1.0,high,
38480058,Kospro Gmbh,Cutting|Wetting|Folding|Packing,DEU,manufacturing,textiles-leather-apparel,52.3249878,10.4655139,USD,,,22446.985890849952,2024,,,,,,,,,,,,,,,,,unmatched,
38472869,Krass + Wissing Gmbh,Finishing Other,DEU,manufacturing,textiles-leather-apparel,52.09181,7.41772,USD,,,22446.98589084995,2024,,,,,,,,,,,,,,,,,unmatched,
38469149,Kristall-Glasfabrik Amberg Gmbh,Glass Manufacturing,DEU,manufacturing,glass,49.427546,11.885778,USD,,,33411.35540036284,2024,,,0.1812927289842232,2311.0,Kristall-Glasfabrik Amberg GmbH & Co. KG,Glasschmelzwanne Amberg,Amberg,Germany,Glass,10088.0,,,0.0,49.427745,11.888266,1.0,high,
1896618,Lagerdorf Cement Plant,integrated dry,DEU,manufacturing,cement,53.8757165922915,9.58237351872246,t of cement,1310000.0003999998,0.5250552972618152,175856.25097959998,2024,1310000.0003999998,687822.439623,0.1822428183161141,121.0,Holcim (Deutschland) AG,Holcim (Deutschland) AG,Lägerdorf,Germany,Cement,1170680.0,1350000.0,2062.5,309.37,53.874164917533,9.583268595991,0.17647058823529413,high,0.5094981034244445
1566787,Lech Stahlwerke Meitingen steel plant,EAF,DEU,manufacturing,iron-and-steel,48.5117415819926,10.8556303301455,t of steel,1400000.0,0.7546543570542597,84521.28799007711,2024,1400000.0,1056516.0998759635,0.2772324744522275,229.0,Lech-Stahlwerke GmbH,Lech-Stahlwerk GmbH,Meitingen,Germany,Iron and steel,143924.0,336228.5,,0.0,48.512118867234,10.859350531635,0.6521739130434783,high,3.1422562331151687
38469061,Ledvance Gmbh,Glass Manufacturing,DEU,manufacturing,glass,48.364566,10.929339,USD,,,33411.35540036284,2024,,,0.2528790316637375,1973.0,Osram GmbH,Glasschmelzwanne Wanne B,Augsburg,Germany,Glass,8600.0,,,0.0,48.366742,10.928344,0.3125,high,
32438311,Lengerich Cement Plant,integrated dry,DEU,manufacturing,cement,52.1749274076963,7.88841102506045,t of cement,1770000.0,0.6959007909372881,836662.383695,2024,1770000.0,1231744.3999589998,0.040309327743382424,173.0,Dyckerhoff GmbH,"Dyckerhoff Werksgruppe Nord, Werk Lengerich",Lengerich,Germany,Cement,1090865.0,1583323.75,1539.34,230.9,52.174985890675,7.887827640548,0.33962264150943394,high,0.7779485401889537
32438322,Lengfurt Cement Plant,integrated dry,DEU,manufacturing,cement,49.8079240372208,9.61927607035703,t of cement,999999.99997,0.5826589680374796,199324.71967,2024,999999.99997,582658.9680199999,0.11593002807779848,226.0,HeidelbergCement AG,HeidelbergCement AG Zementwerk Lengfurt,Triefenstein,Germany,Cement,590041.0,856408.38,832.61,124.89,49.808461000738,9.617891279223,0.5806451612903226,high,0.6803517826623788
44375508,"Lenk Paper GmbH, Papierfabrik Schleipen",Chemical wood pulp; Mechanical and semi-chemical wood pulp,DEU,manufacturing,pulp-and-paper,49.4648466,8.109916,t of pulp & paper,199499.99999,0.8262882204925458,95774.65449699998,2024,199499.99999,164844.49998000002,0.03235360876526002,2171.0,Cordier Spezialpapier GmbH,Papierfabrik Schleipen,Bad Dürkheim,Germany,Paper and printing,264.0,,1.55,0.0,49.464617,8.109641,0.6206896551724138,high,
38480553,Louis Dreyfus Company  Wittenberg Gmbh,Animal And Vegetable Products From The Food And Beverage Sector,DEU,manufacturing,food-beverage-tobacco,51.871127,12.576919,USD,,,151340.05175058288,2024,,,,,,,,,,,,,,,,,unmatched,
38480546,Lubmin Oils Gmbh,Animal And Vegetable Products From The Food And Beverage Sector,DEU,manufacturing,food-beverage-tobacco,54.138798,13.658644,USD,,,151340.05175058288,2024,,,,,,,,,,,,,,,,,unmatched,
45257230,Ludwigshafen,ammonia,DEU,manufacturing,chemicals,49.551684416784,8.40087390938092,t of chemical,380000.0,0.5862068965517242,853165.5172413792,2024,380000.0,222758.6206896552,3.044097261006026,278.0,BASF,BASF SE,Ludwigshafen,Germany,Chemical industry,3974214.0,,,0.0,49.52909984099,8.424717491624,0.3157894736842105,low,
45257231,Ludwigshafen,methanol,DEU,manufacturing,chemicals,49.551684416784,8.40087390938092,t of chemical,165000.0,0.89,55068.75,2024,165000.0,146850.0,,,,,,,,,,,,,,,unmatched,
38480526,"Lutz Fleischwaren Gmbh, Standort Weimar",Animal And Vegetable Products From The Food And Beverage Sector,DEU,manufacturing,food-beverage-tobacco,50.956663,11.235927,USD,,,151340.05175058288,2024,,,,,,,,,,,,,,,,,unmatched,
18648356,"LyondellBasell , Munchsmunster ",Flex Standalone,DEU,manufacturing,petrochemical-steam-cracking,48.755386,11.704528,t of ethylene,399999.99996,0.7535150001753516,521996.9622299999,2024,399999.99996,301406.00004,0.4627920544867871,213.0,Basell Polyolefine GmbH,Basell Polyolefine GmbH,Münchsmünster,Germany,Chemical industry,421267.0,,,0.0,48.758551728254,11.708626432929,0.391304347826087,high,
44375512,"Mercer Rosenthal GmbH - MR, Mercer International Group",Chemical wood pulp; Pulp from fibres other than wood,DEU,manufacturing,pulp-and-paper,50.4034989,11.7007465,t of pulp & paper,199499.99999,0.8262882204925458,95774.65449699998,2024,199499.99999,164844.49998000002,0.12979099933343705,2104.0,Zellstoff- und Papierfabrik Rosenthal GmbH,Zellstoff- und Papierfabrik Rosenthal,Blankenstein,Germany,Paper and printing,42877.0,,,0.0,50.402363,11.700325,0.3188405797101449,high,
32438334,Mergelstetten Cement Plant,integrated dry,DEU,manufacturing,cement,48.6535402966861,10.1628761519788,t of cement,999999.99997,0.5628605152738858,192551.767968,2024,999999.99997,562860.515257,0.034144046734944394,99.0,Schwenk Zement KG,"SCHWENK Zement KG, Werk Mergelstetten",Heidenheim,Germany,Cement,539698.0,783338.6,761.57,114.23,48.653686828527,10.162467670779,0.5416666666666666,high,0.7185405075876511
38480491,Molkerei Meggle Wasserburg Gmbh & Co. Kg,Animal And Vegetable Products From The Food And Beverage Sector,DEU,manufacturing,food-beverage-tobacco,48.056118,12.185196,USD,,,151340.05175058288,2024,,,,,,,,,,,,,,,,,unmatched,
38467585,Märker Kalk Gmbh,Lime Production In Rotary Kilns,DEU,manufacturing,lime,48.773801,10.699592,t of lime,346864.1194243021,0.5300950948558751,188129.32394494565,2024,346864.1194243021,183870.968288325,,,,,,,,,,,,,,,unmatched,
38469141,"Nachtmann Gmbh, Werk Weiden",Glass Manufacturing,DEU,manufacturing,glass,49.697034,12.163593,USD,,,33411.355400362845,2024,,,0.5912656061974565,2029.0,Nachtmann GmbH Werk Weiden,Werk Weiden,Weiden i.d. OPf.,Germany,Glass,10448.0,,,0.0,49.701089,12.158275,1.0,high,
3673049,Neuss aluminium plant,Smelting,DEU,manufacturing,aluminum,51.149397,6.78143,t of alumina/aluminum,150000.00000000003,0.7963017317287937,298613.14939829765,2024,150000.00000000003,119445.25975931907,0.06435052906398941,145.0,Hydro Aluminium Rolled Products GmbH,Hydro Aluminium Rolled Products GmbH Rheinwerk,Neuss,Germany,Non-ferrous metals,304327.0,,,0.0,51.148876549975,6.781833437002,0.43478260869565216,high,
38469069,Noelle + Von Campe Glashütte Gmbh,Glass Manufacturing,DEU,manufacturing,glass,51.750863,9.398083,USD,,,33411.355400362845,2024,,,0.12162471551716633,2337.0,Noelle + von Campe Glashütte GmbH,Glasschmelzwannen für Hohlglasbehältnisse,Boffzen,Germany,Glass,33742.0,56771.79,91.15,18.23,51.75083,9.396317,1.0,high,
38469124,Noelle + Von Campe Gmbh & Co.Kg,Glass Manufacturing,DEU,manufacturing,glass,51.756039,9.398766,USD,,,33411.35540036284,2024,,,0.10740677881050059,2375.0,Noelle + von Campe Glashütte GmbH,Noelle + von Campe Glashütte GmbH  Werk II,Boffzen,Germany,Glass,33264.0,,,0.0,51.755096,9.399104,0.7619047619047619,high,
38480501,Nordzucker Ag Werk Clauen,Animal And Vegetable Products From The Food And Beverage Sector,DEU,manufacturing,food-beverage-tobacco,52.232852,10.034091,USD,,,151340.05175058288,2024,,,,,,,,,,,,,,,,,unmatched,
38480506,Nordzucker Ag Werk Nordstemmen,Animal And Vegetable Products From The Food And Beverage Sector,DEU,manufacturing,food-beverage-tobacco,52.170905,9.795063,USD,,,137875.81008027634,2024,,,,,,,,,,,,,,,,,unmatched,
38480507,Nordzucker Ag Werk Uelzen,Animal And Vegetable Products From The Food And Beverage Sector,DEU,manufacturing,food-beverage-tobacco,52.97672,10.556977,USD,,,170875.81012816174,2024,,,,,,,,,,,,,,,,,unmatched,
38480483,Nordzucker Ag Zuckerfabrik Güstrow,Animal And Vegetable Products From The Food And Beverage Sector,DEU,manufacturing,food-beverage-tobacco,53.794405,12.219617,USD,,,151340.05175058288,2024,,,,,,,,,,,,,,,,,unmatched,
38480488,"Nordzucker Ag, Werk Klein Wanzleben",Animal And Vegetable Products From The Food And Beverage Sector,DEU,manufacturing,food-beverage-tobacco,52.07424,11.385189,USD,,,107875.81003674412,2024,,,,,,,,,,,,,,,,,unmatched,
38480500,"Nordzucker Ag, Werk Schladen",Animal And Vegetable Products From The Food And Beverage Sector,DEU,manufacturing,food-beverage-tobacco,52.02305,10.545896,USD,,,151340.05175058288,2024,,,,,,,,,,,,,,,,,unmatched,
38469071,O-I Glasspack Gmbh & Co. Kg Glashütte Holzminden,Glass Manufacturing,DEU,manufacturing,glass,51.808612,9.443788,USD,,,33411.355400362845,2024,,,0.1834429056799189,1905.0,O-I GLASSPACK GmbH & Co.KG,Glashütte Holzminden,Holzminden,Germany,Glass,43082.0,72486.59,116.38,23.27,51.807093,9.442747,0.7407407407407407,high,
38469145,O-I Glasspack Gmbh & Co. Kg Werk Bernsdorf,Glass Manufacturing,DEU,manufacturing,glass,51.369591,14.067217,USD,,,33411.355400362845,2024,,,0.13236786959917635,2256.0,O-I GLASSPACK GmbH & Co.KG,Glashütte Bernsdorf,Bernsdorf,Germany,Glass,13415.0,22571.08,36.23,7.24,51.370686,14.067965,0.7222222222222222,high,
38469065,O-I Glasspack Gmbh & Co. Kg Werk Rinteln,Glass Manufacturing,DEU,manufacturing,glass,52.198209,9.065182,USD,,,33411.355400362845,2024,,,0.410684943663382,2350.0,O-I GLASSPACK GmbH & Co.KG,Glashütte Stoevesandt Rinteln,Rinteln,Germany,Glass,49005.0,82452.19,132.38,26.47,52.197013,9.070883,0.7647058823529411,high,
38469107,"O-I Glasspack Gmbh&Co.Kg, Werk Achern",Glass Manufacturing,DEU,manufacturing,glass,48.629581,8.062022,USD,,,33411.35540036284,2024,,,,,,,,,,,,,,,,,unmatched,
38480511,O. & L. Sels Gmbh & Co. Kg,Animal And Vegetable Products From The Food And Beverage Sector,DEU,manufacturing,food-beverage-tobacco,51.216611,6.695449,USD,,,151340.05175058288,2024,,,,,,,,,,,,,,,,,unmatched,
18648358,"OMV Deutschland GMBH , Burghausen, Bavaria ",Flex Integrated,DEU,manufacturing,petrochemical-steam-cracking,48.196096,12.835074,t of ethylene,450000.0,0.753515,564245.2448999999,2024,450000.0,339081.75,0.22835388276873916,210.0,OMV Deutschland GmbH,OMV Werk Burghausen,Burghausen,Germany,Refineries,975544.0,,,0.0,48.194976566704,12.832491138432,0.6122448979591837,high,
42546193,Otterbein Cement Plant,integrated dry,DEU,manufacturing,cement,50.5843253465486,9.50973202754031,t of cement,500000.0000400001,0.5108155575791347,173485.73375999997,2024,500000.0000400001,255407.77881,0.026767263791280405,200.0,Zement- und Kalkwerke Otterbein GmbH & Co. KG,ZKW Otterbein Zementwerk,Grossenlüder,Germany,Cement,144790.0,210153.81,204.31,30.64,50.584524444773,9.509518926547,0.75,high,1.2153373703289034
38475078,P.A.C. Gmbh,Cut & Sew|Cutting|Screen Printing|Knit Composite|Packaging|Product Finishing|Sewing|Assembly|Packing,DEU,manufacturing,textiles-leather-apparel,50.0577644,10.1945167,USD,,,22446.985890849952,2024,,,,,,,,,,,,,,,,,unmatched,
32438320,Paderborn Cement Plant,integrated dry,DEU,manufacturing,cement,51.6986367034115,8.74608993795988,t of cement,400000.00001,0.4966949128350826,134952.007851,2024,400000.00001,198677.965139,0.07632394798378529,178.0,HeidelbergCement AG,Heidelberg Cement AG - Zementwerk Paderborn,Paderborn,Germany,Cement,255022.0,370148.81,359.86,53.98,51.698988473224,8.747040907386,0.5625,high,0.5367515976587903
